{
"type": "FeatureCollection",
"name": "transformers",
"crs": { "type": "name", "properties": { "name": "urn:ogc:def:crs:OGC:1.3:CRS84" } },
"features": [
{ "type": "Feature", "properties": { "siteNo": "313819", "siteName": "WESTLEIGH", "mounting": "Ground Mounted", "voltage_kv": 11.0 }, "geometry": { "type": "Point", "coordinates": [ -3.403491286435042, 50.638473483862398 ] } },
{ "type": "Feature", "properties": { "siteNo": "341571", "siteName": "SOUTH TOWN", "mounting": "Pole Mounted", "voltage_kv": 11.0 }, "geometry": { "type": "Point", "coordinates": [ -3.46410682742141, 50.638076548312611 ] } },
{ "type": "Feature", "properties": { "siteNo": "340257", "siteName": "KENTON", "mounting": "Ground Mounted", "voltage_kv": 11.0 }, "geometry": { "type": "Point", "coordinates": [ -3.470127161696345, 50.638794799066311 ] } },
{ "type": "Feature", "properties": { "siteNo": "344223", "siteName": "ST ANNES NO. 11", "mounting": "Ground Mounted", "voltage_kv": 11.0 }, "geometry": { "type": "Point", "coordinates": [ -3.473999324839472, 50.638952757017613 ] } },
{ "type": "Feature", "properties": { "siteNo": "344697", "siteName": "PENHAYES", "mounting": "Pole Mounted", "voltage_kv": 11.0 }, "geometry": { "type": "Point", "coordinates": [ -3.467297911822923, 50.639898332669304 ] } },
{ "type": "Feature", "properties": { "siteNo": "343947", "siteName": "HIGH STREET", "mounting": "Ground Mounted", "voltage_kv": 11.0 }, "geometry": { "type": "Point", "coordinates": [ -3.476473891299947, 50.640328711819947 ] } },
{ "type": "Feature", "properties": { "siteNo": "344233", "siteName": "VICTORIA CLOSE", "mounting": "Ground Mounted", "voltage_kv": 11.0 }, "geometry": { "type": "Point", "coordinates": [ -3.473076400483215, 50.640715980877459 ] } },
{ "type": "Feature", "properties": { "siteNo": "317616", "siteName": "Lympstone Manor Leisure", "mounting": "Pole Mounted", "voltage_kv": 11.0 }, "geometry": { "type": "Point", "coordinates": [ -3.416854777925617, 50.639359672935782 ] } },
{ "type": "Feature", "properties": { "siteNo": "314864", "siteName": "COURTLANDS", "mounting": "Pole Mounted", "voltage_kv": 11.0 }, "geometry": { "type": "Point", "coordinates": [ -3.418251088492078, 50.640729416945774 ] } },
{ "type": "Feature", "properties": { "siteNo": "310622", "siteName": "COURTLANDS CROSS", "mounting": "Ground Mounted", "voltage_kv": 11.0 }, "geometry": { "type": "Point", "coordinates": [ -3.410953312915589, 50.6421319403754 ] } },
{ "type": "Feature", "properties": { "siteNo": "310621", "siteName": "CHATTER PARK", "mounting": "Pole Mounted", "voltage_kv": 11.0 }, "geometry": { "type": "Point", "coordinates": [ -3.41953658713349, 50.642844605058997 ] } },
{ "type": "Feature", "properties": { "siteNo": "315760", "siteName": "SOWDEN END", "mounting": "Pole Mounted", "voltage_kv": 11.0 }, "geometry": { "type": "Point", "coordinates": [ -3.428090940477893, 50.644110094009051 ] } },
{ "type": "Feature", "properties": { "siteNo": "310432", "siteName": "SOWDEN FARM", "mounting": "Pole Mounted", "voltage_kv": 11.0 }, "geometry": { "type": "Point", "coordinates": [ -3.424826546998839, 50.644527219593563 ] } },
{ "type": "Feature", "properties": { "siteNo": "314857", "siteName": "LINHAYES FARM", "mounting": "Pole Mounted", "voltage_kv": 11.0 }, "geometry": { "type": "Point", "coordinates": [ -3.414769347668598, 50.645775929307007 ] } },
{ "type": "Feature", "properties": { "siteNo": "310619", "siteName": "HIGHCLIFFE", "mounting": "Ground Mounted", "voltage_kv": 11.0 }, "geometry": { "type": "Point", "coordinates": [ -3.429706646207513, 50.645731338070696 ] } },
{ "type": "Feature", "properties": { "siteNo": "315273", "siteName": "SUMMERFIELD HOUSE", "mounting": "Pole Mounted", "voltage_kv": 11.0 }, "geometry": { "type": "Point", "coordinates": [ -3.403775284231926, 50.643446520011175 ] } },
{ "type": "Feature", "properties": { "siteNo": "314428", "siteName": "NEW FILLING STATION", "mounting": "Pole Mounted", "voltage_kv": 11.0 }, "geometry": { "type": "Point", "coordinates": [ -3.541800833658896, 50.6374988371524 ] } },
{ "type": "Feature", "properties": { "siteNo": "315611", "siteName": "HAPPY EATER HALDON", "mounting": "Pole Mounted", "voltage_kv": 11.0 }, "geometry": { "type": "Point", "coordinates": [ -3.562407108392239, 50.637899586052768 ] } },
{ "type": "Feature", "properties": { "siteNo": "316499", "siteName": "HALDON STEEPLECHASE", "mounting": "Ground Mounted", "voltage_kv": 11.0 }, "geometry": { "type": "Point", "coordinates": [ -3.561679354907727, 50.640724228276774 ] } },
{ "type": "Feature", "properties": { "siteNo": "317292", "siteName": "HALDON GARAGE", "mounting": "Ground Mounted", "voltage_kv": 11.0 }, "geometry": { "type": "Point", "coordinates": [ -3.562818218205972, 50.640816649209221 ] } },
{ "type": "Feature", "properties": { "siteNo": "317071", "siteName": "LITTLE CHEF HALDON HILL", "mounting": "Pole Mounted", "voltage_kv": 11.0 }, "geometry": { "type": "Point", "coordinates": [ -3.562232819506593, 50.640924371216599 ] } },
{ "type": "Feature", "properties": { "siteNo": "314800", "siteName": "HALDON RACECOURSE", "mounting": "Pole Mounted", "voltage_kv": 11.0 }, "geometry": { "type": "Point", "coordinates": [ -3.563174384255767, 50.640976912064225 ] } },
{ "type": "Feature", "properties": { "siteNo": "314267", "siteName": "HALDON RADIO STATION", "mounting": "Pole Mounted", "voltage_kv": 11.0 }, "geometry": { "type": "Point", "coordinates": [ -3.564410409179716, 50.642203533573799 ] } },
{ "type": "Feature", "properties": { "siteNo": "340255", "siteName": "ASH FARM", "mounting": "Pole Mounted", "voltage_kv": 11.0 }, "geometry": { "type": "Point", "coordinates": [ -3.502889333440223, 50.63772816693352 ] } },
{ "type": "Feature", "properties": { "siteNo": "344803", "siteName": "EXETER LODGE", "mounting": "Pole Mounted", "voltage_kv": 11.0 }, "geometry": { "type": "Point", "coordinates": [ -3.513587508998305, 50.638604392702675 ] } },
{ "type": "Feature", "properties": { "siteNo": "345478", "siteName": "MIDDLE HAYDON COTTAGES", "mounting": "Pole Mounted", "voltage_kv": 11.0 }, "geometry": { "type": "Point", "coordinates": [ -3.504683063644155, 50.642087190351198 ] } },
{ "type": "Feature", "properties": { "siteNo": "340256", "siteName": "CHIVERSTONE", "mounting": "Pole Mounted", "voltage_kv": 11.0 }, "geometry": { "type": "Point", "coordinates": [ -3.492331049933071, 50.645333180891377 ] } },
{ "type": "Feature", "properties": { "siteNo": "345306", "siteName": "CHIVERSTONE FARM", "mounting": "Pole Mounted", "voltage_kv": 11.0 }, "geometry": { "type": "Point", "coordinates": [ -3.490570964886455, 50.646768729199422 ] } },
{ "type": "Feature", "properties": { "siteNo": "341484", "siteName": "KENTON MILL", "mounting": "Pole Mounted", "voltage_kv": 11.0 }, "geometry": { "type": "Point", "coordinates": [ -3.484408630927348, 50.650233739631858 ] } },
{ "type": "Feature", "properties": { "siteNo": "341485", "siteName": "SAMPSONS FARM", "mounting": "Pole Mounted", "voltage_kv": 11.0 }, "geometry": { "type": "Point", "coordinates": [ -3.495966288100763, 50.651104092961141 ] } },
{ "type": "Feature", "properties": { "siteNo": "343162", "siteName": "CHERRY ORCHARD", "mounting": "Pole Mounted", "voltage_kv": 11.0 }, "geometry": { "type": "Point", "coordinates": [ -3.612799838820222, 50.638005508571197 ] } },
{ "type": "Feature", "properties": { "siteNo": "341805", "siteName": "MIDDLE BRAMBLE", "mounting": "Pole Mounted", "voltage_kv": 11.0 }, "geometry": { "type": "Point", "coordinates": [ -3.599648157489689, 50.638649560981399 ] } },
{ "type": "Feature", "properties": { "siteNo": "343163", "siteName": "HOLDEN X CHICKEN FRM", "mounting": "Pole Mounted", "voltage_kv": 11.0 }, "geometry": { "type": "Point", "coordinates": [ -3.609463547112922, 50.642237514962233 ] } },
{ "type": "Feature", "properties": { "siteNo": "344070", "siteName": "HOLDEN CROSS", "mounting": "Pole Mounted", "voltage_kv": 11.0 }, "geometry": { "type": "Point", "coordinates": [ -3.607909334894036, 50.642843863594344 ] } },
{ "type": "Feature", "properties": { "siteNo": "345387", "siteName": "AIRCRAFT HANGAR HIGHER ASHTON", "mounting": "Pole Mounted", "voltage_kv": 11.0 }, "geometry": { "type": "Point", "coordinates": [ -3.610708444376033, 50.647058069008224 ] } },
{ "type": "Feature", "properties": { "siteNo": "342869", "siteName": "FERNDOWN", "mounting": "Pole Mounted", "voltage_kv": 11.0 }, "geometry": { "type": "Point", "coordinates": [ -3.605463024206909, 50.649127243957274 ] } },
{ "type": "Feature", "properties": { "siteNo": "317520", "siteName": "KENNFORD COURT", "mounting": "Pole Mounted", "voltage_kv": 11.0 }, "geometry": { "type": "Point", "coordinates": [ -3.577411574234561, 50.651415692675052 ] } },
{ "type": "Feature", "properties": { "siteNo": "317756", "siteName": "Haldon Forest Park", "mounting": "Ground Mounted", "voltage_kv": 11.0 }, "geometry": { "type": "Point", "coordinates": [ -3.580508534987957, 50.651374092193912 ] } },
{ "type": "Feature", "properties": { "siteNo": "316827", "siteName": "HALDON NEW HOUSE", "mounting": "Pole Mounted", "voltage_kv": 11.0 }, "geometry": { "type": "Point", "coordinates": [ -3.540102323002257, 50.637885483252461 ] } },
{ "type": "Feature", "properties": { "siteNo": "310386", "siteName": "THORNTON COTTAGES", "mounting": "Pole Mounted", "voltage_kv": 11.0 }, "geometry": { "type": "Point", "coordinates": [ -3.528937225874671, 50.639060989657771 ] } },
{ "type": "Feature", "properties": { "siteNo": "310384", "siteName": "HALDON CHALETS", "mounting": "Pole Mounted", "voltage_kv": 11.0 }, "geometry": { "type": "Point", "coordinates": [ -3.540039434897385, 50.639661478570638 ] } },
{ "type": "Feature", "properties": { "siteNo": "310385", "siteName": "HIGHER THORNTON FARM", "mounting": "Pole Mounted", "voltage_kv": 11.0 }, "geometry": { "type": "Point", "coordinates": [ -3.526575708420957, 50.641281873372414 ] } },
{ "type": "Feature", "properties": { "siteNo": "310383", "siteName": "HAYDON COTTAGES", "mounting": "Pole Mounted", "voltage_kv": 11.0 }, "geometry": { "type": "Point", "coordinates": [ -3.518202069622803, 50.646125370349878 ] } },
{ "type": "Feature", "properties": { "siteNo": "310382", "siteName": "WHITCOMBE", "mounting": "Pole Mounted", "voltage_kv": 11.0 }, "geometry": { "type": "Point", "coordinates": [ -3.51913762022068, 50.647695752607696 ] } },
{ "type": "Feature", "properties": { "siteNo": "310286", "siteName": "BICKHAM FARM", "mounting": "Pole Mounted", "voltage_kv": 11.0 }, "geometry": { "type": "Point", "coordinates": [ -3.536515088879175, 50.650983089666497 ] } },
{ "type": "Feature", "properties": { "siteNo": "310381", "siteName": "TUCKERS COTT", "mounting": "Pole Mounted", "voltage_kv": 11.0 }, "geometry": { "type": "Point", "coordinates": [ -3.529540724670653, 50.651618088379941 ] } },
{ "type": "Feature", "properties": { "siteNo": "310380", "siteName": "WESTS COTTAGES", "mounting": "Pole Mounted", "voltage_kv": 11.0 }, "geometry": { "type": "Point", "coordinates": [ -3.525382741206118, 50.652738212662243 ] } },
{ "type": "Feature", "properties": { "siteNo": "310287", "siteName": "TREHILL HOUSE", "mounting": "Pole Mounted", "voltage_kv": 11.0 }, "geometry": { "type": "Point", "coordinates": [ -3.532460963869259, 50.655111751063409 ] } },
{ "type": "Feature", "properties": { "siteNo": "317296", "siteName": "TRAVELLERS SITE", "mounting": "Pole Mounted", "voltage_kv": 11.0 }, "geometry": { "type": "Point", "coordinates": [ -3.547418408984214, 50.644169869882042 ] } },
{ "type": "Feature", "properties": { "siteNo": "310417", "siteName": "HALDON QUARRIES", "mounting": "Pole Mounted", "voltage_kv": 11.0 }, "geometry": { "type": "Point", "coordinates": [ -3.567496192096827, 50.647722304048479 ] } },
{ "type": "Feature", "properties": { "siteNo": "315831", "siteName": "WOODLANDS NURSING HOME", "mounting": "Ground Mounted", "voltage_kv": 11.0 }, "geometry": { "type": "Point", "coordinates": [ -3.547395521484528, 50.648122665501283 ] } },
{ "type": "Feature", "properties": { "siteNo": "310184", "siteName": "WOODLANDS", "mounting": "Pole Mounted", "voltage_kv": 11.0 }, "geometry": { "type": "Point", "coordinates": [ -3.546983016667064, 50.649239891377462 ] } },
{ "type": "Feature", "properties": { "siteNo": "316276", "siteName": "HALDON OLD PRISON SITE", "mounting": "Pole Mounted", "voltage_kv": 11.0 }, "geometry": { "type": "Point", "coordinates": [ -3.574031994007406, 50.652436575865572 ] } },
{ "type": "Feature", "properties": { "siteNo": "315159", "siteName": "HALDON HILL", "mounting": "Pole Mounted", "voltage_kv": 11.0 }, "geometry": { "type": "Point", "coordinates": [ -3.541216230401189, 50.655584435153372 ] } },
{ "type": "Feature", "properties": { "siteNo": "316492", "siteName": "GOOSEMOOR", "mounting": "Pole Mounted", "voltage_kv": 11.0 }, "geometry": { "type": "Point", "coordinates": [ -3.566169137696676, 50.65539982057615 ] } },
{ "type": "Feature", "properties": { "siteNo": "310176", "siteName": "BROWNS FARM", "mounting": "Pole Mounted", "voltage_kv": 11.0 }, "geometry": { "type": "Point", "coordinates": [ -3.551545527325672, 50.656265978649664 ] } },
{ "type": "Feature", "properties": { "siteNo": "310162", "siteName": "HANNAFORD FARM", "mounting": "Pole Mounted", "voltage_kv": 11.0 }, "geometry": { "type": "Point", "coordinates": [ -3.56037157450478, 50.657463743543879 ] } },
{ "type": "Feature", "properties": { "siteNo": "315545", "siteName": "HOLLOWAY FARM BUILDINGS", "mounting": "Pole Mounted", "voltage_kv": 11.0 }, "geometry": { "type": "Point", "coordinates": [ -3.56957542062662, 50.657764976969354 ] } },
{ "type": "Feature", "properties": { "siteNo": "342872", "siteName": "MIDDLE KIDDENS", "mounting": "Pole Mounted", "voltage_kv": 11.0 }, "geometry": { "type": "Point", "coordinates": [ -3.593861736378948, 50.651600890773544 ] } },
{ "type": "Feature", "properties": { "siteNo": "314790", "siteName": "HALDON FORESTRY", "mounting": "Pole Mounted", "voltage_kv": 11.0 }, "geometry": { "type": "Point", "coordinates": [ -3.579015834359692, 50.651919919175675 ] } },
{ "type": "Feature", "properties": { "siteNo": "342871", "siteName": "LOWER KIDDENS", "mounting": "Pole Mounted", "voltage_kv": 11.0 }, "geometry": { "type": "Point", "coordinates": [ -3.599533503400201, 50.653663552661051 ] } },
{ "type": "Feature", "properties": { "siteNo": "342870", "siteName": "PINE TOPS", "mounting": "Pole Mounted", "voltage_kv": 11.0 }, "geometry": { "type": "Point", "coordinates": [ -3.602137425785337, 50.653636166895161 ] } },
{ "type": "Feature", "properties": { "siteNo": "342873", "siteName": "COWLEY FARM", "mounting": "Pole Mounted", "voltage_kv": 11.0 }, "geometry": { "type": "Point", "coordinates": [ -3.604613234345729, 50.658095071522922 ] } },
{ "type": "Feature", "properties": { "siteNo": "342978", "siteName": "WESTWOOD FARM", "mounting": "Pole Mounted", "voltage_kv": 11.0 }, "geometry": { "type": "Point", "coordinates": [ -3.595780313146846, 50.658269983989101 ] } },
{ "type": "Feature", "properties": { "siteNo": "345755", "siteName": "VIMY RIDGE", "mounting": "Pole Mounted", "voltage_kv": 11.0 }, "geometry": { "type": "Point", "coordinates": [ -3.608680964384508, 50.65916726852609 ] } },
{ "type": "Feature", "properties": { "siteNo": "345614", "siteName": "COWLEY BRAKE", "mounting": "Pole Mounted", "voltage_kv": 11.0 }, "geometry": { "type": "Point", "coordinates": [ -3.602454481867686, 50.659749887210495 ] } },
{ "type": "Feature", "properties": { "siteNo": "345469", "siteName": "FRANCE BROOK", "mounting": "Pole Mounted", "voltage_kv": 11.0 }, "geometry": { "type": "Point", "coordinates": [ -3.599890306573431, 50.662805825659134 ] } },
{ "type": "Feature", "properties": { "siteNo": "313597", "siteName": "BOROUGH", "mounting": "Pole Mounted", "voltage_kv": 11.0 }, "geometry": { "type": "Point", "coordinates": [ -3.582752402047792, 50.663179267726349 ] } },
{ "type": "Feature", "properties": { "siteNo": "345244", "siteName": "TEIGN VALLY GOLF CLUB", "mounting": "Pole Mounted", "voltage_kv": 11.0 }, "geometry": { "type": "Point", "coordinates": [ -3.64033683093546, 50.638433768732099 ] } },
{ "type": "Feature", "properties": { "siteNo": "342512", "siteName": "PENN", "mounting": "Pole Mounted", "voltage_kv": 11.0 }, "geometry": { "type": "Point", "coordinates": [ -3.618951115264085, 50.640149665864485 ] } },
{ "type": "Feature", "properties": { "siteNo": "342511", "siteName": "GEORGE TIEGN BARTON", "mounting": "Pole Mounted", "voltage_kv": 11.0 }, "geometry": { "type": "Point", "coordinates": [ -3.623694112021456, 50.640778941330503 ] } },
{ "type": "Feature", "properties": { "siteNo": "342510", "siteName": "BEARDON COTTAGE", "mounting": "Pole Mounted", "voltage_kv": 11.0 }, "geometry": { "type": "Point", "coordinates": [ -3.62192463153611, 50.64107782110743 ] } },
{ "type": "Feature", "properties": { "siteNo": "344281", "siteName": "REED COTTAGES", "mounting": "Pole Mounted", "voltage_kv": 11.0 }, "geometry": { "type": "Point", "coordinates": [ -3.648014345852923, 50.64239792781013 ] } },
{ "type": "Feature", "properties": { "siteNo": "345663", "siteName": "BEARDON FARM", "mounting": "Pole Mounted", "voltage_kv": 11.0 }, "geometry": { "type": "Point", "coordinates": [ -3.616757900621564, 50.642916444120011 ] } },
{ "type": "Feature", "properties": { "siteNo": "344280", "siteName": "BYTEIGN", "mounting": "Pole Mounted", "voltage_kv": 11.0 }, "geometry": { "type": "Point", "coordinates": [ -3.64735039066307, 50.643547661614051 ] } },
{ "type": "Feature", "properties": { "siteNo": "340242", "siteName": "LOWER ASHTON", "mounting": "Pole Mounted", "voltage_kv": 11.0 }, "geometry": { "type": "Point", "coordinates": [ -3.638636990663294, 50.644082811165227 ] } },
{ "type": "Feature", "properties": { "siteNo": "342509", "siteName": "GLEBE HOUSE", "mounting": "Pole Mounted", "voltage_kv": 11.0 }, "geometry": { "type": "Point", "coordinates": [ -3.61422950907267, 50.644749484116304 ] } },
{ "type": "Feature", "properties": { "siteNo": "340241", "siteName": "HILL FARM", "mounting": "Pole Mounted", "voltage_kv": 11.0 }, "geometry": { "type": "Point", "coordinates": [ -3.648557817647123, 50.645476426079384 ] } },
{ "type": "Feature", "properties": { "siteNo": "342197", "siteName": "ASTON MANOR", "mounting": "Pole Mounted", "voltage_kv": 11.0 }, "geometry": { "type": "Point", "coordinates": [ -3.634310362959035, 50.646088993602412 ] } },
{ "type": "Feature", "properties": { "siteNo": "346156", "siteName": "Blatchford Farm", "mounting": "Pole Mounted", "voltage_kv": 11.0 }, "geometry": { "type": "Point", "coordinates": [ -3.637450377106386, 50.646108592507474 ] } },
{ "type": "Feature", "properties": { "siteNo": "340244", "siteName": "COMBE FARM", "mounting": "Pole Mounted", "voltage_kv": 11.0 }, "geometry": { "type": "Point", "coordinates": [ -3.617021809517258, 50.646778450261358 ] } },
{ "type": "Feature", "properties": { "siteNo": "345144", "siteName": "ASHTON MILL", "mounting": "Pole Mounted", "voltage_kv": 11.0 }, "geometry": { "type": "Point", "coordinates": [ -3.63821062257259, 50.646796605878386 ] } },
{ "type": "Feature", "properties": { "siteNo": "346000", "siteName": "PIGEON COPSE", "mounting": "Pole Mounted", "voltage_kv": 11.0 }, "geometry": { "type": "Point", "coordinates": [ -3.625040810521329, 50.648602690189406 ] } },
{ "type": "Feature", "properties": { "siteNo": "345424", "siteName": "MOOR BARTON FARM", "mounting": "Pole Mounted", "voltage_kv": 11.0 }, "geometry": { "type": "Point", "coordinates": [ -3.674520766990993, 50.637982000637713 ] } },
{ "type": "Feature", "properties": { "siteNo": "340240", "siteName": "CLEAVE HOUSE", "mounting": "Pole Mounted", "voltage_kv": 11.0 }, "geometry": { "type": "Point", "coordinates": [ -3.65735127032029, 50.648089952662062 ] } },
{ "type": "Feature", "properties": { "siteNo": "344541", "siteName": "BOWDEN FARM", "mounting": "Pole Mounted", "voltage_kv": 11.0 }, "geometry": { "type": "Point", "coordinates": [ -3.666360107565823, 50.649117778591787 ] } },
{ "type": "Feature", "properties": { "siteNo": "345408", "siteName": "CLAMPITT HOUSE", "mounting": "Pole Mounted", "voltage_kv": 11.0 }, "geometry": { "type": "Point", "coordinates": [ -3.675254976473437, 50.650483118564452 ] } },
{ "type": "Feature", "properties": { "siteNo": "345407", "siteName": "HECKLAND", "mounting": "Pole Mounted", "voltage_kv": 11.0 }, "geometry": { "type": "Point", "coordinates": [ -3.668784303805902, 50.651894211929694 ] } },
{ "type": "Feature", "properties": { "siteNo": "345409", "siteName": "SCATTOR ROCK HOUSE", "mounting": "Pole Mounted", "voltage_kv": 11.0 }, "geometry": { "type": "Point", "coordinates": [ -3.664750337260516, 50.653922484107873 ] } },
{ "type": "Feature", "properties": { "siteNo": "342761", "siteName": "MIDDLE HOLE", "mounting": "Pole Mounted", "voltage_kv": 11.0 }, "geometry": { "type": "Point", "coordinates": [ -3.677475009648204, 50.655078654988941 ] } },
{ "type": "Feature", "properties": { "siteNo": "342761", "siteName": "MIDDLE HOLE", "mounting": "Pole Mounted", "voltage_kv": 11.0 }, "geometry": { "type": "Point", "coordinates": [ -3.677468402880697, 50.655079451491176 ] } },
{ "type": "Feature", "properties": { "siteNo": "340236", "siteName": "HOLE FARM", "mounting": "Pole Mounted", "voltage_kv": 11.0 }, "geometry": { "type": "Point", "coordinates": [ -3.67737475215699, 50.658078278496056 ] } },
{ "type": "Feature", "properties": { "siteNo": "345223", "siteName": "LOWER HOLE", "mounting": "Pole Mounted", "voltage_kv": 11.0 }, "geometry": { "type": "Point", "coordinates": [ -3.67978163320751, 50.658095043137727 ] } },
{ "type": "Feature", "properties": { "siteNo": "343937", "siteName": "BENNAH", "mounting": "Pole Mounted", "voltage_kv": 11.0 }, "geometry": { "type": "Point", "coordinates": [ -3.651157002060186, 50.648274343540479 ] } },
{ "type": "Feature", "properties": { "siteNo": "344342", "siteName": "OXEN PARK FARM", "mounting": "Pole Mounted", "voltage_kv": 11.0 }, "geometry": { "type": "Point", "coordinates": [ -3.628054605160205, 50.649125837428635 ] } },
{ "type": "Feature", "properties": { "siteNo": "344156", "siteName": "DEER LEAP FARM", "mounting": "Pole Mounted", "voltage_kv": 11.0 }, "geometry": { "type": "Point", "coordinates": [ -3.617898668342391, 50.649290402554286 ] } },
{ "type": "Feature", "properties": { "siteNo": "346010", "siteName": "Howards Barn", "mounting": "Pole Mounted", "voltage_kv": 11.0 }, "geometry": { "type": "Point", "coordinates": [ -3.634733425864471, 50.649743352034633 ] } },
{ "type": "Feature", "properties": { "siteNo": "340243", "siteName": "HIGHER ASHTON", "mounting": "Pole Mounted", "voltage_kv": 11.0 }, "geometry": { "type": "Point", "coordinates": [ -3.621313814973028, 50.650129870993368 ] } },
{ "type": "Feature", "properties": { "siteNo": "342915", "siteName": "CHURCH LANE", "mounting": "Ground Mounted", "voltage_kv": 11.0 }, "geometry": { "type": "Point", "coordinates": [ -3.648354782486152, 50.650674888152793 ] } },
{ "type": "Feature", "properties": { "siteNo": "344353", "siteName": "WATERWELL LANE", "mounting": "Pole Mounted", "voltage_kv": 11.0 }, "geometry": { "type": "Point", "coordinates": [ -3.645034604113099, 50.651105396594161 ] } },
{ "type": "Feature", "properties": { "siteNo": "344351", "siteName": "LOWER BARTON FARM", "mounting": "Pole Mounted", "voltage_kv": 11.0 }, "geometry": { "type": "Point", "coordinates": [ -3.613915475139453, 50.652408483645367 ] } },
{ "type": "Feature", "properties": { "siteNo": "343564", "siteName": "VILLAGE ROAD", "mounting": "Ground Mounted", "voltage_kv": 11.0 }, "geometry": { "type": "Point", "coordinates": [ -3.650503105286677, 50.652593311360135 ] } },
{ "type": "Feature", "properties": { "siteNo": "341202", "siteName": "ARTICHOKE INN", "mounting": "Pole Mounted", "voltage_kv": 11.0 }, "geometry": { "type": "Point", "coordinates": [ -3.651265363041142, 50.653614379258855 ] } },
{ "type": "Feature", "properties": { "siteNo": "340238", "siteName": "WATERWELL", "mounting": "Ground Mounted", "voltage_kv": 11.0 }, "geometry": { "type": "Point", "coordinates": [ -3.646054997628332, 50.65373804220129 ] } },
{ "type": "Feature", "properties": { "siteNo": "345524", "siteName": "PREMIER BARN HIGHER BARTON", "mounting": "Pole Mounted", "voltage_kv": 11.0 }, "geometry": { "type": "Point", "coordinates": [ -3.616608586086644, 50.654801107088609 ] } },
{ "type": "Feature", "properties": { "siteNo": "340239", "siteName": "HIGHER BARTON", "mounting": "Pole Mounted", "voltage_kv": 11.0 }, "geometry": { "type": "Point", "coordinates": [ -3.615219702029981, 50.655352089418386 ] } },
{ "type": "Feature", "properties": { "siteNo": "344229", "siteName": "CHRISTOW SEWAGE", "mounting": "Pole Mounted", "voltage_kv": 11.0 }, "geometry": { "type": "Point", "coordinates": [ -3.645058454120402, 50.655663630458825 ] } },
{ "type": "Feature", "properties": { "siteNo": "344323", "siteName": "DRY LANE", "mounting": "Ground Mounted", "voltage_kv": 11.0 }, "geometry": { "type": "Point", "coordinates": [ -3.655390690263697, 50.656056583009132 ] } },
{ "type": "Feature", "properties": { "siteNo": "346108", "siteName": "Premier Barton Workshop", "mounting": "Pole Mounted", "voltage_kv": 11.0 }, "geometry": { "type": "Point", "coordinates": [ -3.617000049641743, 50.656838665884997 ] } },
{ "type": "Feature", "properties": { "siteNo": "341251", "siteName": "SOUTHLEIGH COTTAGES", "mounting": "Pole Mounted", "voltage_kv": 11.0 }, "geometry": { "type": "Point", "coordinates": [ -3.628584022276991, 50.657983694838677 ] } },
{ "type": "Feature", "properties": { "siteNo": "341252", "siteName": "GREAT LEIGH", "mounting": "Pole Mounted", "voltage_kv": 11.0 }, "geometry": { "type": "Point", "coordinates": [ -3.634687945489461, 50.658286213345178 ] } },
{ "type": "Feature", "properties": { "siteNo": "340237", "siteName": "CHRISTOW", "mounting": "Pole Mounted", "voltage_kv": 11.0 }, "geometry": { "type": "Point", "coordinates": [ -3.651318542391432, 50.658122994970967 ] } },
{ "type": "Feature", "properties": { "siteNo": "345786", "siteName": "MISTLEIGH SPRINGS", "mounting": "Pole Mounted", "voltage_kv": 11.0 }, "geometry": { "type": "Point", "coordinates": [ -3.619234801363665, 50.658797255244174 ] } },
{ "type": "Feature", "properties": { "siteNo": "342890", "siteName": "THE LILLIES", "mounting": "Pole Mounted", "voltage_kv": 11.0 }, "geometry": { "type": "Point", "coordinates": [ -3.657830810774308, 50.660356680978346 ] } },
{ "type": "Feature", "properties": { "siteNo": "340225", "siteName": "POOLE BERE", "mounting": "Pole Mounted", "voltage_kv": 11.0 }, "geometry": { "type": "Point", "coordinates": [ -3.674360676514807, 50.661754575526473 ] } },
{ "type": "Feature", "properties": { "siteNo": "340228", "siteName": "STONE", "mounting": "Pole Mounted", "voltage_kv": 11.0 }, "geometry": { "type": "Point", "coordinates": [ -3.663308915815044, 50.662254429273666 ] } },
{ "type": "Feature", "properties": { "siteNo": "343450", "siteName": "POOLE FARM", "mounting": "Pole Mounted", "voltage_kv": 11.0 }, "geometry": { "type": "Point", "coordinates": [ -3.672428502383119, 50.662211679412941 ] } },
{ "type": "Feature", "properties": { "siteNo": "344912", "siteName": "NORTHWOOD FARM", "mounting": "Pole Mounted", "voltage_kv": 11.0 }, "geometry": { "type": "Point", "coordinates": [ -3.656504970012008, 50.662595287376135 ] } },
{ "type": "Feature", "properties": { "siteNo": "344760", "siteName": "BRIDFORD SEWAGE WORKS", "mounting": "Pole Mounted", "voltage_kv": 11.0 }, "geometry": { "type": "Point", "coordinates": [ -3.675071838608627, 50.663568211044733 ] } },
{ "type": "Feature", "properties": { "siteNo": "341250", "siteName": "MISTLEIGH", "mounting": "Pole Mounted", "voltage_kv": 11.0 }, "geometry": { "type": "Point", "coordinates": [ -3.622203058481543, 50.659530317989386 ] } },
{ "type": "Feature", "properties": { "siteNo": "345935", "siteName": "PRIORY BARN", "mounting": "Pole Mounted", "voltage_kv": 11.0 }, "geometry": { "type": "Point", "coordinates": [ -3.651410505976556, 50.65953309242694 ] } },
{ "type": "Feature", "properties": { "siteNo": "343801", "siteName": "FOXHOLE HILL", "mounting": "Pole Mounted", "voltage_kv": 11.0 }, "geometry": { "type": "Point", "coordinates": [ -3.648931798286781, 50.660130987893126 ] } },
{ "type": "Feature", "properties": { "siteNo": "340230", "siteName": "SOUTHWOOD", "mounting": "Pole Mounted", "voltage_kv": 11.0 }, "geometry": { "type": "Point", "coordinates": [ -3.651440850103479, 50.662712564061891 ] } },
{ "type": "Feature", "properties": { "siteNo": "343151", "siteName": "CHERRY TREE COTTAGE", "mounting": "Pole Mounted", "voltage_kv": 11.0 }, "geometry": { "type": "Point", "coordinates": [ -3.621730820633752, 50.664421047609622 ] } },
{ "type": "Feature", "properties": { "siteNo": "342660", "siteName": "GLENLEIGH", "mounting": "Pole Mounted", "voltage_kv": 11.0 }, "geometry": { "type": "Point", "coordinates": [ -3.620151291785086, 50.665942917768433 ] } },
{ "type": "Feature", "properties": { "siteNo": "340233", "siteName": "DODDISCOMBELEIGH", "mounting": "Pole Mounted", "voltage_kv": 11.0 }, "geometry": { "type": "Point", "coordinates": [ -3.620364611728374, 50.667514254085482 ] } },
{ "type": "Feature", "properties": { "siteNo": "341062", "siteName": "TEIGN HOUSE", "mounting": "Pole Mounted", "voltage_kv": 11.0 }, "geometry": { "type": "Point", "coordinates": [ -3.646581968941345, 50.667313229473848 ] } },
{ "type": "Feature", "properties": { "siteNo": "341063", "siteName": "CHRISTOW STATION", "mounting": "Pole Mounted", "voltage_kv": 11.0 }, "geometry": { "type": "Point", "coordinates": [ -3.642901409325589, 50.66752025829522 ] } },
{ "type": "Feature", "properties": { "siteNo": "343628", "siteName": "TEIGN HOUSE BUNGALOW", "mounting": "Pole Mounted", "voltage_kv": 11.0 }, "geometry": { "type": "Point", "coordinates": [ -3.647850884077663, 50.667450972564701 ] } },
{ "type": "Feature", "properties": { "siteNo": "342901", "siteName": "POOKS COTTAGE", "mounting": "Pole Mounted", "voltage_kv": 11.0 }, "geometry": { "type": "Point", "coordinates": [ -3.667490939653781, 50.663855896850514 ] } },
{ "type": "Feature", "properties": { "siteNo": "346092", "siteName": "Bridford Quarries", "mounting": "Pole Mounted", "voltage_kv": 11.0 }, "geometry": { "type": "Point", "coordinates": [ -3.663832971517699, 50.664288379625177 ] } },
{ "type": "Feature", "properties": { "siteNo": "343028", "siteName": "CHURCH LANE", "mounting": "Pole Mounted", "voltage_kv": 11.0 }, "geometry": { "type": "Point", "coordinates": [ -3.678077226268188, 50.665310307675036 ] } },
{ "type": "Feature", "properties": { "siteNo": "340226", "siteName": "BRIDFORD MINE", "mounting": "Pole Mounted", "voltage_kv": 11.0 }, "geometry": { "type": "Point", "coordinates": [ -3.658076528007905, 50.665961801741702 ] } },
{ "type": "Feature", "properties": { "siteNo": "340224", "siteName": "BRIDFORD VILLAGE", "mounting": "Ground Mounted", "voltage_kv": 11.0 }, "geometry": { "type": "Point", "coordinates": [ -3.674652718951324, 50.666258529262798 ] } },
{ "type": "Feature", "properties": { "siteNo": "345826", "siteName": "POUND LANE", "mounting": "Pole Mounted", "voltage_kv": 11.0 }, "geometry": { "type": "Point", "coordinates": [ -3.65681669225542, 50.667565285184274 ] } },
{ "type": "Feature", "properties": { "siteNo": "345695", "siteName": "SEVEN ACRE LANE", "mounting": "Pole Mounted", "voltage_kv": 11.0 }, "geometry": { "type": "Point", "coordinates": [ -3.683541695994024, 50.667476526336344 ] } },
{ "type": "Feature", "properties": { "siteNo": "342383", "siteName": "SHIPPING FARM", "mounting": "Pole Mounted", "voltage_kv": 11.0 }, "geometry": { "type": "Point", "coordinates": [ -3.659293653650107, 50.669115213797731 ] } },
{ "type": "Feature", "properties": { "siteNo": "345411", "siteName": "NEADON LANE BRIDFORD", "mounting": "Pole Mounted", "voltage_kv": 11.0 }, "geometry": { "type": "Point", "coordinates": [ -3.661002843669376, 50.670235178090699 ] } },
{ "type": "Feature", "properties": { "siteNo": "344740", "siteName": "TOWN BARTON", "mounting": "Pole Mounted", "voltage_kv": 11.0 }, "geometry": { "type": "Point", "coordinates": [ -3.620069467795495, 50.668122130240896 ] } },
{ "type": "Feature", "properties": { "siteNo": "344160", "siteName": "TCC WORKS", "mounting": "Pole Mounted", "voltage_kv": 11.0 }, "geometry": { "type": "Point", "coordinates": [ -3.648822518663467, 50.667958913603094 ] } },
{ "type": "Feature", "properties": { "siteNo": "344020", "siteName": "TELEPHONE EXCHANGE CHRISTOW", "mounting": "Pole Mounted", "voltage_kv": 11.0 }, "geometry": { "type": "Point", "coordinates": [ -3.645748051120829, 50.668046295218581 ] } },
{ "type": "Feature", "properties": { "siteNo": "344193", "siteName": "COOMBES COTTAGE", "mounting": "Pole Mounted", "voltage_kv": 11.0 }, "geometry": { "type": "Point", "coordinates": [ -3.644365247111771, 50.669174632075034 ] } },
{ "type": "Feature", "properties": { "siteNo": "343702", "siteName": "POST OFFICE", "mounting": "Pole Mounted", "voltage_kv": 11.0 }, "geometry": { "type": "Point", "coordinates": [ -3.623358542855462, 50.669633999893442 ] } },
{ "type": "Feature", "properties": { "siteNo": "345972", "siteName": "TEIGN SPRINGS", "mounting": "Pole Mounted", "voltage_kv": 11.0 }, "geometry": { "type": "Point", "coordinates": [ -3.622224450672731, 50.669874090168825 ] } },
{ "type": "Feature", "properties": { "siteNo": "340232", "siteName": "PERRY FARM", "mounting": "Pole Mounted", "voltage_kv": 11.0 }, "geometry": { "type": "Point", "coordinates": [ -3.615741012935962, 50.67010133258065 ] } },
{ "type": "Feature", "properties": { "siteNo": "343786", "siteName": "OAKLEY", "mounting": "Pole Mounted", "voltage_kv": 11.0 }, "geometry": { "type": "Point", "coordinates": [ -3.617846353908754, 50.670115149786085 ] } },
{ "type": "Feature", "properties": { "siteNo": "340231", "siteName": "MYRTLE COTTAGE", "mounting": "Pole Mounted", "voltage_kv": 11.0 }, "geometry": { "type": "Point", "coordinates": [ -3.626138107458887, 50.670143281086844 ] } },
{ "type": "Feature", "properties": { "siteNo": "343864", "siteName": "GREYSTONE", "mounting": "Pole Mounted", "voltage_kv": 11.0 }, "geometry": { "type": "Point", "coordinates": [ -3.629634834729471, 50.670184109853196 ] } },
{ "type": "Feature", "properties": { "siteNo": "340229", "siteName": "BRIDFORD MILL", "mounting": "Pole Mounted", "voltage_kv": 11.0 }, "geometry": { "type": "Point", "coordinates": [ -3.651625129430221, 50.669903126374656 ] } },
{ "type": "Feature", "properties": { "siteNo": "343863", "siteName": "LAKE COTTAGE", "mounting": "Pole Mounted", "voltage_kv": 11.0 }, "geometry": { "type": "Point", "coordinates": [ -3.628668567558672, 50.670969163177297 ] } },
{ "type": "Feature", "properties": { "siteNo": "346031", "siteName": "Batts Brook", "mounting": "Pole Mounted", "voltage_kv": 11.0 }, "geometry": { "type": "Point", "coordinates": [ -3.635474767407233, 50.671156561424091 ] } },
{ "type": "Feature", "properties": { "siteNo": "341937", "siteName": "SHELDON", "mounting": "Pole Mounted", "voltage_kv": 11.0 }, "geometry": { "type": "Point", "coordinates": [ -3.644262981894903, 50.671226855768396 ] } },
{ "type": "Feature", "properties": { "siteNo": "344537", "siteName": "HEREFORD COTTAGES", "mounting": "Pole Mounted", "voltage_kv": 11.0 }, "geometry": { "type": "Point", "coordinates": [ -3.632509373585784, 50.671555989331139 ] } },
{ "type": "Feature", "properties": { "siteNo": "345758", "siteName": "LONG PARK BARN", "mounting": "Pole Mounted", "voltage_kv": 11.0 }, "geometry": { "type": "Point", "coordinates": [ -3.618078535577643, 50.672817238030454 ] } },
{ "type": "Feature", "properties": { "siteNo": "346122", "siteName": "Brooke Farm", "mounting": "Pole Mounted", "voltage_kv": 11.0 }, "geometry": { "type": "Point", "coordinates": [ -3.615132661574695, 50.673664452477965 ] } },
{ "type": "Feature", "properties": { "siteNo": "342960", "siteName": "SEXTONS CROSS", "mounting": "Pole Mounted", "voltage_kv": 11.0 }, "geometry": { "type": "Point", "coordinates": [ -3.61480920962757, 50.673839626354201 ] } },
{ "type": "Feature", "properties": { "siteNo": "345576", "siteName": "SPANISH LAKE CROSS", "mounting": "Pole Mounted", "voltage_kv": 11.0 }, "geometry": { "type": "Point", "coordinates": [ -3.637431365540557, 50.673709495402605 ] } },
{ "type": "Feature", "properties": { "siteNo": "341936", "siteName": "HALFWAYS", "mounting": "Pole Mounted", "voltage_kv": 11.0 }, "geometry": { "type": "Point", "coordinates": [ -3.648361669403234, 50.673583905475731 ] } },
{ "type": "Feature", "properties": { "siteNo": "343830", "siteName": "WINDHILL GATE", "mounting": "Pole Mounted", "voltage_kv": 11.0 }, "geometry": { "type": "Point", "coordinates": [ -3.674534169405185, 50.670631949601635 ] } },
{ "type": "Feature", "properties": { "siteNo": "342384", "siteName": "NEADON", "mounting": "Pole Mounted", "voltage_kv": 11.0 }, "geometry": { "type": "Point", "coordinates": [ -3.662808908278386, 50.671334868784555 ] } },
{ "type": "Feature", "properties": { "siteNo": "343949", "siteName": "NEADON LANE", "mounting": "Pole Mounted", "voltage_kv": 11.0 }, "geometry": { "type": "Point", "coordinates": [ -3.657801020885256, 50.671823001956348 ] } },
{ "type": "Feature", "properties": { "siteNo": "344827", "siteName": "BIRCHTREE FARM", "mounting": "Pole Mounted", "voltage_kv": 11.0 }, "geometry": { "type": "Point", "coordinates": [ -3.674259224934856, 50.67331614155961 ] } },
{ "type": "Feature", "properties": { "siteNo": "342756", "siteName": "BIRCH", "mounting": "Pole Mounted", "voltage_kv": 11.0 }, "geometry": { "type": "Point", "coordinates": [ -3.667867918092, 50.673959070578441 ] } },
{ "type": "Feature", "properties": { "siteNo": "345560", "siteName": "BLACKPOOL COPSE", "mounting": "Pole Mounted", "voltage_kv": 11.0 }, "geometry": { "type": "Point", "coordinates": [ -3.660194642092083, 50.674821526566909 ] } },
{ "type": "Feature", "properties": { "siteNo": "340222", "siteName": "ASHBURY HILL", "mounting": "Pole Mounted", "voltage_kv": 11.0 }, "geometry": { "type": "Point", "coordinates": [ -3.671529693615995, 50.676147684141498 ] } },
{ "type": "Feature", "properties": { "siteNo": "340221", "siteName": "COPPLESTONE", "mounting": "Pole Mounted", "voltage_kv": 11.0 }, "geometry": { "type": "Point", "coordinates": [ -3.675157944976485, 50.677150857584344 ] } },
{ "type": "Feature", "properties": { "siteNo": "343732", "siteName": "WOODLANDS", "mounting": "Pole Mounted", "voltage_kv": 11.0 }, "geometry": { "type": "Point", "coordinates": [ -3.684041627032948, 50.677966725129998 ] } },
{ "type": "Feature", "properties": { "siteNo": "344708", "siteName": "UHF RELAY DUNSFORD", "mounting": "Pole Mounted", "voltage_kv": 11.0 }, "geometry": { "type": "Point", "coordinates": [ -3.684156832500144, 50.679577707390742 ] } },
{ "type": "Feature", "properties": { "siteNo": "340219", "siteName": "WEEKE BARTON", "mounting": "Pole Mounted", "voltage_kv": 11.0 }, "geometry": { "type": "Point", "coordinates": [ -3.670265674563756, 50.680115258936446 ] } },
{ "type": "Feature", "properties": { "siteNo": "342882", "siteName": "HR SOWTON BARTON", "mounting": "Pole Mounted", "voltage_kv": 11.0 }, "geometry": { "type": "Point", "coordinates": [ -3.657155954523567, 50.681440404067182 ] } },
{ "type": "Feature", "properties": { "siteNo": "342402", "siteName": "SOWTON MILL", "mounting": "Pole Mounted", "voltage_kv": 11.0 }, "geometry": { "type": "Point", "coordinates": [ -3.664814478804393, 50.682450667523938 ] } },
{ "type": "Feature", "properties": { "siteNo": "346145", "siteName": "Swanaford Stables", "mounting": "Pole Mounted", "voltage_kv": 11.0 }, "geometry": { "type": "Point", "coordinates": [ -3.671242243261724, 50.682865526642267 ] } },
{ "type": "Feature", "properties": { "siteNo": "340223", "siteName": "LEIGH CROSS", "mounting": "Pole Mounted", "voltage_kv": 11.0 }, "geometry": { "type": "Point", "coordinates": [ -3.650023530139953, 50.675762236844101 ] } },
{ "type": "Feature", "properties": { "siteNo": "342881", "siteName": "DALE VISTA", "mounting": "Pole Mounted", "voltage_kv": 11.0 }, "geometry": { "type": "Point", "coordinates": [ -3.655002261289236, 50.678329509705826 ] } },
{ "type": "Feature", "properties": { "siteNo": "342152", "siteName": "LOWLEY", "mounting": "Pole Mounted", "voltage_kv": 11.0 }, "geometry": { "type": "Point", "coordinates": [ -3.643547717126189, 50.678880917602328 ] } },
{ "type": "Feature", "properties": { "siteNo": "345791", "siteName": "MATTHEWS FARM", "mounting": "Pole Mounted", "voltage_kv": 11.0 }, "geometry": { "type": "Point", "coordinates": [ -3.643555071986187, 50.681138255774528 ] } },
{ "type": "Feature", "properties": { "siteNo": "342153", "siteName": "EASTERN HILL", "mounting": "Pole Mounted", "voltage_kv": 11.0 }, "geometry": { "type": "Point", "coordinates": [ -3.633689482388433, 50.683420636424181 ] } },
{ "type": "Feature", "properties": { "siteNo": "342150", "siteName": "KOLORA FARM", "mounting": "Pole Mounted", "voltage_kv": 11.0 }, "geometry": { "type": "Point", "coordinates": [ -3.648724509389894, 50.684473903390817 ] } },
{ "type": "Feature", "properties": { "siteNo": "340220", "siteName": "SOWTON BARTON", "mounting": "Pole Mounted", "voltage_kv": 11.0 }, "geometry": { "type": "Point", "coordinates": [ -3.651460955819544, 50.687056291818344 ] } },
{ "type": "Feature", "properties": { "siteNo": "342149", "siteName": "KINGSCOURT FARM", "mounting": "Pole Mounted", "voltage_kv": 11.0 }, "geometry": { "type": "Point", "coordinates": [ -3.649578632389288, 50.687946353192189 ] } },
{ "type": "Feature", "properties": { "siteNo": "340956", "siteName": "COTLEY KILN", "mounting": "Pole Mounted", "voltage_kv": 11.0 }, "geometry": { "type": "Point", "coordinates": [ -3.616106592058952, 50.688786518654076 ] } },
{ "type": "Feature", "properties": { "siteNo": "344742", "siteName": "DANDYLANDS FARM", "mounting": "Pole Mounted", "voltage_kv": 11.0 }, "geometry": { "type": "Point", "coordinates": [ -3.633914709432978, 50.690043695407262 ] } },
{ "type": "Feature", "properties": { "siteNo": "344152", "siteName": "SHOOTING BOX", "mounting": "Pole Mounted", "voltage_kv": 11.0 }, "geometry": { "type": "Point", "coordinates": [ -3.674728569454365, 50.682959968814664 ] } },
{ "type": "Feature", "properties": { "siteNo": "345809", "siteName": "SOWTON COTT BRIDGE", "mounting": "Pole Mounted", "voltage_kv": 11.0 }, "geometry": { "type": "Point", "coordinates": [ -3.666903738849585, 50.683778979488409 ] } },
{ "type": "Feature", "properties": { "siteNo": "340218", "siteName": "SWANNAFORD", "mounting": "Pole Mounted", "voltage_kv": 11.0 }, "geometry": { "type": "Point", "coordinates": [ -3.671553638789261, 50.683738012794258 ] } },
{ "type": "Feature", "properties": { "siteNo": "343629", "siteName": "WEIR COTTAGE", "mounting": "Pole Mounted", "voltage_kv": 11.0 }, "geometry": { "type": "Point", "coordinates": [ -3.670638927334327, 50.686680871190006 ] } },
{ "type": "Feature", "properties": { "siteNo": "340216", "siteName": "DUNSFORD", "mounting": "Pole Mounted", "voltage_kv": 11.0 }, "geometry": { "type": "Point", "coordinates": [ -3.679668157814938, 50.687700772704332 ] } },
{ "type": "Feature", "properties": { "siteNo": "343837", "siteName": "DUNSFORD PUMPING STATION", "mounting": "Pole Mounted", "voltage_kv": 11.0 }, "geometry": { "type": "Point", "coordinates": [ -3.67235956608646, 50.688223702194811 ] } },
{ "type": "Feature", "properties": { "siteNo": "342867", "siteName": "WINSCOMBE FARM", "mounting": "Pole Mounted", "voltage_kv": 11.0 }, "geometry": { "type": "Point", "coordinates": [ -3.660925104707252, 50.688525913573351 ] } },
{ "type": "Feature", "properties": { "siteNo": "341590", "siteName": "TOWNSEND", "mounting": "Ground Mounted", "voltage_kv": 11.0 }, "geometry": { "type": "Point", "coordinates": [ -3.683090362022177, 50.689823454717683 ] } },
{ "type": "Feature", "properties": { "siteNo": "345860", "siteName": "RIVER BANK", "mounting": "Pole Mounted", "voltage_kv": 11.0 }, "geometry": { "type": "Point", "coordinates": [ -3.671188870289664, 50.69022420793798 ] } },
{ "type": "Feature", "properties": { "siteNo": "340215", "siteName": "REEDY", "mounting": "Pole Mounted", "voltage_kv": 11.0 }, "geometry": { "type": "Point", "coordinates": [ -3.670651362222568, 50.690399150969597 ] } },
{ "type": "Feature", "properties": { "siteNo": "344124", "siteName": "COOMBE FARM", "mounting": "Pole Mounted", "voltage_kv": 11.0 }, "geometry": { "type": "Point", "coordinates": [ -3.666277380404052, 50.690954323962288 ] } },
{ "type": "Feature", "properties": { "siteNo": "345066", "siteName": "VERANDA COTTAGE", "mounting": "Pole Mounted", "voltage_kv": 11.0 }, "geometry": { "type": "Point", "coordinates": [ -3.674034132822703, 50.691309121299248 ] } },
{ "type": "Feature", "properties": { "siteNo": "340213", "siteName": "TWO CROSSES", "mounting": "Pole Mounted", "voltage_kv": 11.0 }, "geometry": { "type": "Point", "coordinates": [ -3.660549182504671, 50.692148133342783 ] } },
{ "type": "Feature", "properties": { "siteNo": "342866", "siteName": "WARNSCOMBE", "mounting": "Pole Mounted", "voltage_kv": 11.0 }, "geometry": { "type": "Point", "coordinates": [ -3.664278937509073, 50.692254248092723 ] } },
{ "type": "Feature", "properties": { "siteNo": "345714", "siteName": "ZEAL CROSS", "mounting": "Pole Mounted", "voltage_kv": 11.0 }, "geometry": { "type": "Point", "coordinates": [ -3.67915419263092, 50.693143906663039 ] } },
{ "type": "Feature", "properties": { "siteNo": "342865", "siteName": "WAYE", "mounting": "Pole Mounted", "voltage_kv": 11.0 }, "geometry": { "type": "Point", "coordinates": [ -3.659578683519614, 50.695115182096359 ] } },
{ "type": "Feature", "properties": { "siteNo": "340211", "siteName": "LOCKHOUSE", "mounting": "Pole Mounted", "voltage_kv": 11.0 }, "geometry": { "type": "Point", "coordinates": [ -3.67411105218659, 50.694974586289874 ] } },
{ "type": "Feature", "properties": { "siteNo": "340957", "siteName": "HIGHER COTLEY", "mounting": "Pole Mounted", "voltage_kv": 11.0 }, "geometry": { "type": "Point", "coordinates": [ -3.626435173602053, 50.69090774089711 ] } },
{ "type": "Feature", "properties": { "siteNo": "345762", "siteName": "KOBASHI", "mounting": "Pole Mounted", "voltage_kv": 11.0 }, "geometry": { "type": "Point", "coordinates": [ -3.625507090615902, 50.691001019421201 ] } },
{ "type": "Feature", "properties": { "siteNo": "340955", "siteName": "COTLEY COTTAGES", "mounting": "Pole Mounted", "voltage_kv": 11.0 }, "geometry": { "type": "Point", "coordinates": [ -3.620659675889782, 50.69147373656709 ] } },
{ "type": "Feature", "properties": { "siteNo": "340954", "siteName": "WEST COTLEY", "mounting": "Pole Mounted", "voltage_kv": 11.0 }, "geometry": { "type": "Point", "coordinates": [ -3.632324204863611, 50.692400757606698 ] } },
{ "type": "Feature", "properties": { "siteNo": "340953", "siteName": "HORROWMORE", "mounting": "Pole Mounted", "voltage_kv": 11.0 }, "geometry": { "type": "Point", "coordinates": [ -3.636518733323824, 50.694618738273654 ] } },
{ "type": "Feature", "properties": { "siteNo": "340212", "siteName": "NOGSLAND", "mounting": "Pole Mounted", "voltage_kv": 11.0 }, "geometry": { "type": "Point", "coordinates": [ -3.648911350369816, 50.69485408432034 ] } },
{ "type": "Feature", "properties": { "siteNo": "340958", "siteName": "BEER", "mounting": "Pole Mounted", "voltage_kv": 11.0 }, "geometry": { "type": "Point", "coordinates": [ -3.640968910033556, 50.695422414849055 ] } },
{ "type": "Feature", "properties": { "siteNo": "345290", "siteName": "NOGSLAND FARM", "mounting": "Pole Mounted", "voltage_kv": 11.0 }, "geometry": { "type": "Point", "coordinates": [ -3.640903790126287, 50.696178088814115 ] } },
{ "type": "Feature", "properties": { "siteNo": "344203", "siteName": "GREAT MATRIDGE", "mounting": "Pole Mounted", "voltage_kv": 11.0 }, "geometry": { "type": "Point", "coordinates": [ -3.638017553438796, 50.697299955667781 ] } },
{ "type": "Feature", "properties": { "siteNo": "340210", "siteName": "CULVER", "mounting": "Pole Mounted", "voltage_kv": 11.0 }, "geometry": { "type": "Point", "coordinates": [ -3.634250679170494, 50.698015182577841 ] } },
{ "type": "Feature", "properties": { "siteNo": "342864", "siteName": "HONEYWAY", "mounting": "Pole Mounted", "voltage_kv": 11.0 }, "geometry": { "type": "Point", "coordinates": [ -3.663405990288523, 50.697081041180482 ] } },
{ "type": "Feature", "properties": { "siteNo": "340209", "siteName": "ZEAL", "mounting": "Pole Mounted", "voltage_kv": 11.0 }, "geometry": { "type": "Point", "coordinates": [ -3.674489792573299, 50.697680133483701 ] } },
{ "type": "Feature", "properties": { "siteNo": "341346", "siteName": "BROOK", "mounting": "Pole Mounted", "voltage_kv": 11.0 }, "geometry": { "type": "Point", "coordinates": [ -3.677400991848994, 50.702474996798827 ] } },
{ "type": "Feature", "properties": { "siteNo": "344378", "siteName": "KELLAND COPSE", "mounting": "Pole Mounted", "voltage_kv": 11.0 }, "geometry": { "type": "Point", "coordinates": [ -3.670074318691894, 50.702803128542719 ] } },
{ "type": "Feature", "properties": { "siteNo": "340205", "siteName": "KELLAND CORNER", "mounting": "Pole Mounted", "voltage_kv": 11.0 }, "geometry": { "type": "Point", "coordinates": [ -3.665703362101519, 50.704219156344038 ] } },
{ "type": "Feature", "properties": { "siteNo": "341347", "siteName": "CORRIDGE", "mounting": "Pole Mounted", "voltage_kv": 11.0 }, "geometry": { "type": "Point", "coordinates": [ -3.680525039702543, 50.705081013426678 ] } },
{ "type": "Feature", "properties": { "siteNo": "343421", "siteName": "CULVER HOUSE", "mounting": "Pole Mounted", "voltage_kv": 11.0 }, "geometry": { "type": "Point", "coordinates": [ -3.634154579090375, 50.699441683988987 ] } },
{ "type": "Feature", "properties": { "siteNo": "341191", "siteName": "STORRIDGE", "mounting": "Pole Mounted", "voltage_kv": 11.0 }, "geometry": { "type": "Point", "coordinates": [ -3.653988955635199, 50.700090897688561 ] } },
{ "type": "Feature", "properties": { "siteNo": "340960", "siteName": "MIDWINTER", "mounting": "Pole Mounted", "voltage_kv": 11.0 }, "geometry": { "type": "Point", "coordinates": [ -3.627801316858043, 50.701036366731309 ] } },
{ "type": "Feature", "properties": { "siteNo": "340961", "siteName": "CULVER LODGE", "mounting": "Pole Mounted", "voltage_kv": 11.0 }, "geometry": { "type": "Point", "coordinates": [ -3.630323902595821, 50.702711936673076 ] } },
{ "type": "Feature", "properties": { "siteNo": "344274", "siteName": "SHEPHARDS FORD", "mounting": "Pole Mounted", "voltage_kv": 11.0 }, "geometry": { "type": "Point", "coordinates": [ -3.650650685934596, 50.703914971293074 ] } },
{ "type": "Feature", "properties": { "siteNo": "340959", "siteName": "EAST HILL FARM", "mounting": "Pole Mounted", "voltage_kv": 11.0 }, "geometry": { "type": "Point", "coordinates": [ -3.628796914084811, 50.704880249773908 ] } },
{ "type": "Feature", "properties": { "siteNo": "341192", "siteName": "FORD", "mounting": "Pole Mounted", "voltage_kv": 11.0 }, "geometry": { "type": "Point", "coordinates": [ -3.654489848113264, 50.704520247845984 ] } },
{ "type": "Feature", "properties": { "siteNo": "341193", "siteName": "RUGHOUSE", "mounting": "Pole Mounted", "voltage_kv": 11.0 }, "geometry": { "type": "Point", "coordinates": [ -3.647350332747154, 50.706262328726588 ] } },
{ "type": "Feature", "properties": { "siteNo": "341195", "siteName": "KINGSFORD", "mounting": "Pole Mounted", "voltage_kv": 11.0 }, "geometry": { "type": "Point", "coordinates": [ -3.645456275361571, 50.709523326593441 ] } },
{ "type": "Feature", "properties": { "siteNo": "341196", "siteName": "CLOVE FARM", "mounting": "Pole Mounted", "voltage_kv": 11.0 }, "geometry": { "type": "Point", "coordinates": [ -3.638679671137643, 50.710932287232765 ] } },
{ "type": "Feature", "properties": { "siteNo": "310278", "siteName": "PEAMORE FARM", "mounting": "Pole Mounted", "voltage_kv": 11.0 }, "geometry": { "type": "Point", "coordinates": [ -3.530239580224615, 50.683386785424339 ] } },
{ "type": "Feature", "properties": { "siteNo": "316414", "siteName": "PCN TOWER", "mounting": "Pole Mounted", "voltage_kv": 11.0 }, "geometry": { "type": "Point", "coordinates": [ -3.516086636149326, 50.683811600018132 ] } },
{ "type": "Feature", "properties": { "siteNo": "317008", "siteName": "TROOD LANE LANDFILL SITE", "mounting": "Pole Mounted", "voltage_kv": 11.0 }, "geometry": { "type": "Point", "coordinates": [ -3.51843329945396, 50.686518590315487 ] } },
{ "type": "Feature", "properties": { "siteNo": "310276", "siteName": "KEEPERS COTTAGE", "mounting": "Pole Mounted", "voltage_kv": 11.0 }, "geometry": { "type": "Point", "coordinates": [ -3.534944603774588, 50.688017096829931 ] } },
{ "type": "Feature", "properties": { "siteNo": "313722", "siteName": "TROOD HOUSE", "mounting": "Pole Mounted", "voltage_kv": 11.0 }, "geometry": { "type": "Point", "coordinates": [ -3.521136061601735, 50.689148800507461 ] } },
{ "type": "Feature", "properties": { "siteNo": "316726", "siteName": "WAYBROOK LANE", "mounting": "Pole Mounted", "voltage_kv": 11.0 }, "geometry": { "type": "Point", "coordinates": [ -3.538164171104579, 50.68969106743382 ] } },
{ "type": "Feature", "properties": { "siteNo": "315471", "siteName": "THE BUNGALOW SHILLINGFORD ABBOT", "mounting": "Pole Mounted", "voltage_kv": 11.0 }, "geometry": { "type": "Point", "coordinates": [ -3.541404198179793, 50.689915386202635 ] } },
{ "type": "Feature", "properties": { "siteNo": "313721", "siteName": "MATFORD FARM", "mounting": "Ground Mounted", "voltage_kv": 11.0 }, "geometry": { "type": "Point", "coordinates": [ -3.516880056428523, 50.691558608889594 ] } },
{ "type": "Feature", "properties": { "siteNo": "314407", "siteName": "Waybrook Cottages", "mounting": "Pole Mounted", "voltage_kv": 11.0 }, "geometry": { "type": "Point", "coordinates": [ -3.531765569607819, 50.691504324367997 ] } },
{ "type": "Feature", "properties": { "siteNo": "317608", "siteName": "Trood Estate Matford", "mounting": "Ground Mounted", "voltage_kv": 11.0 }, "geometry": { "type": "Point", "coordinates": [ -3.51960744777584, 50.691958806956237 ] } },
{ "type": "Feature", "properties": { "siteNo": "315675", "siteName": "SEWAGE WORKS SHILLINGFORD ST GEORGE", "mounting": "Pole Mounted", "voltage_kv": 11.0 }, "geometry": { "type": "Point", "coordinates": [ -3.548422284525508, 50.68078937792292 ] } },
{ "type": "Feature", "properties": { "siteNo": "314511", "siteName": "Dunchideock Orchard", "mounting": "Pole Mounted", "voltage_kv": 11.0 }, "geometry": { "type": "Point", "coordinates": [ -3.572532712677574, 50.681070298262391 ] } },
{ "type": "Feature", "properties": { "siteNo": "310172", "siteName": "SHILLINGFORD", "mounting": "Pole Mounted", "voltage_kv": 11.0 }, "geometry": { "type": "Point", "coordinates": [ -3.547342898041678, 50.683990353617055 ] } },
{ "type": "Feature", "properties": { "siteNo": "314772", "siteName": "MARSHALL FARM", "mounting": "Pole Mounted", "voltage_kv": 11.0 }, "geometry": { "type": "Point", "coordinates": [ -3.576921246670356, 50.685261182970144 ] } },
{ "type": "Feature", "properties": { "siteNo": "314774", "siteName": "BOWHAY FARM", "mounting": "Pole Mounted", "voltage_kv": 11.0 }, "geometry": { "type": "Point", "coordinates": [ -3.561154044977513, 50.685761899980108 ] } },
{ "type": "Feature", "properties": { "siteNo": "314635", "siteName": "THE BARTON", "mounting": "Pole Mounted", "voltage_kv": 11.0 }, "geometry": { "type": "Point", "coordinates": [ -3.550408263875635, 50.687545778333885 ] } },
{ "type": "Feature", "properties": { "siteNo": "314656", "siteName": "BARTON LANE", "mounting": "Pole Mounted", "voltage_kv": 11.0 }, "geometry": { "type": "Point", "coordinates": [ -3.54888319701383, 50.688251685797574 ] } },
{ "type": "Feature", "properties": { "siteNo": "310155", "siteName": "SHILLINGFORD ABBOT", "mounting": "Pole Mounted", "voltage_kv": 11.0 }, "geometry": { "type": "Point", "coordinates": [ -3.542134465715645, 50.688359255548939 ] } },
{ "type": "Feature", "properties": { "siteNo": "314770", "siteName": "THE MORNE", "mounting": "Pole Mounted", "voltage_kv": 11.0 }, "geometry": { "type": "Point", "coordinates": [ -3.568684995123877, 50.690226866220549 ] } },
{ "type": "Feature", "properties": { "siteNo": "315434", "siteName": "MARKHAM LANE", "mounting": "Pole Mounted", "voltage_kv": 11.0 }, "geometry": { "type": "Point", "coordinates": [ -3.550677242724924, 50.694887004592751 ] } },
{ "type": "Feature", "properties": { "siteNo": "315065", "siteName": "IDESTONE FARM WATER PUMP", "mounting": "Pole Mounted", "voltage_kv": 11.0 }, "geometry": { "type": "Point", "coordinates": [ -3.586084241067631, 50.683017859093212 ] } },
{ "type": "Feature", "properties": { "siteNo": "314749", "siteName": "IDESTONE", "mounting": "Pole Mounted", "voltage_kv": 11.0 }, "geometry": { "type": "Point", "coordinates": [ -3.588213144658088, 50.683742664390515 ] } },
{ "type": "Feature", "properties": { "siteNo": "314752", "siteName": "HIGHER HORRELLS", "mounting": "Pole Mounted", "voltage_kv": 11.0 }, "geometry": { "type": "Point", "coordinates": [ -3.598378813404043, 50.685836794094669 ] } },
{ "type": "Feature", "properties": { "siteNo": "315662", "siteName": "LOWER HORRELLS", "mounting": "Pole Mounted", "voltage_kv": 11.0 }, "geometry": { "type": "Point", "coordinates": [ -3.597682141996486, 50.685865649342674 ] } },
{ "type": "Feature", "properties": { "siteNo": "317718", "siteName": "Exe View", "mounting": "Pole Mounted", "voltage_kv": 11.0 }, "geometry": { "type": "Point", "coordinates": [ -3.590566617987002, 50.690822797188048 ] } },
{ "type": "Feature", "properties": { "siteNo": "317709", "siteName": "Whiddon Barn", "mounting": "Pole Mounted", "voltage_kv": 11.0 }, "geometry": { "type": "Point", "coordinates": [ -3.586344605984968, 50.691335809645935 ] } },
{ "type": "Feature", "properties": { "siteNo": "314760", "siteName": "HALSCOMBE", "mounting": "Pole Mounted", "voltage_kv": 11.0 }, "geometry": { "type": "Point", "coordinates": [ -3.583285009173829, 50.696347468783806 ] } },
{ "type": "Feature", "properties": { "siteNo": "314728", "siteName": "DARNIFORD", "mounting": "Pole Mounted", "voltage_kv": 11.0 }, "geometry": { "type": "Point", "coordinates": [ -3.608056229429256, 50.696923466196743 ] } },
{ "type": "Feature", "properties": { "siteNo": "314876", "siteName": "DARNIFORD FARM", "mounting": "Pole Mounted", "voltage_kv": 11.0 }, "geometry": { "type": "Point", "coordinates": [ -3.607080587570968, 50.697433464965492 ] } },
{ "type": "Feature", "properties": { "siteNo": "310170", "siteName": "PERRIDGE HOUSE", "mounting": "Pole Mounted", "voltage_kv": 11.0 }, "geometry": { "type": "Point", "coordinates": [ -3.605562936862736, 50.701518340494353 ] } },
{ "type": "Feature", "properties": { "siteNo": "317608", "siteName": "Trood Estate Matford", "mounting": "Ground Mounted", "voltage_kv": 11.0 }, "geometry": { "type": "Point", "coordinates": [ -3.519565614805325, 50.691966412379386 ] } },
{ "type": "Feature", "properties": { "siteNo": "310274", "siteName": "Chudleigh Road", "mounting": "Pole Mounted", "voltage_kv": 11.0 }, "geometry": { "type": "Point", "coordinates": [ -3.530882800370836, 50.692803786525872 ] } },
{ "type": "Feature", "properties": { "siteNo": "310275", "siteName": "MATFORD BARTON", "mounting": "Pole Mounted", "voltage_kv": 11.0 }, "geometry": { "type": "Point", "coordinates": [ -3.524548027572434, 50.692915062387279 ] } },
{ "type": "Feature", "properties": { "siteNo": "317659", "siteName": "Fawcett Way", "mounting": "Ground Mounted", "voltage_kv": 11.0 }, "geometry": { "type": "Point", "coordinates": [ -3.53013052940525, 50.693530849607008 ] } },
{ "type": "Feature", "properties": { "siteNo": "317448", "siteName": "LYONS CORNER", "mounting": "Ground Mounted", "voltage_kv": 11.0 }, "geometry": { "type": "Point", "coordinates": [ -3.515925051676882, 50.693954535682565 ] } },
{ "type": "Feature", "properties": { "siteNo": "315676", "siteName": "BUNGALOW MARKHAM LANE", "mounting": "Pole Mounted", "voltage_kv": 11.0 }, "geometry": { "type": "Point", "coordinates": [ -3.541599861501741, 50.693628674577575 ] } },
{ "type": "Feature", "properties": { "siteNo": "314077", "siteName": "BARNFIELD HOUSE", "mounting": "Pole Mounted", "voltage_kv": 11.0 }, "geometry": { "type": "Point", "coordinates": [ -3.527059866832157, 50.694035417915501 ] } },
{ "type": "Feature", "properties": { "siteNo": "317258", "siteName": "MATFORD GREEN BUSINESS PARK", "mounting": "Ground Mounted", "voltage_kv": 11.0 }, "geometry": { "type": "Point", "coordinates": [ -3.516803668560303, 50.694855817336141 ] } },
{ "type": "Feature", "properties": { "siteNo": "317393", "siteName": "MATFORD BUS DEPOT", "mounting": "Ground Mounted", "voltage_kv": 11.0 }, "geometry": { "type": "Point", "coordinates": [ -3.520473908662104, 50.694974010727698 ] } },
{ "type": "Feature", "properties": { "siteNo": "310273", "siteName": "SHILLINGFORD ROAD", "mounting": "Pole Mounted", "voltage_kv": 11.0 }, "geometry": { "type": "Point", "coordinates": [ -3.537668922580244, 50.694875489122225 ] } },
{ "type": "Feature", "properties": { "siteNo": "317753", "siteName": "Aldens Farm", "mounting": "Ground Mounted", "voltage_kv": 11.0 }, "geometry": { "type": "Point", "coordinates": [ -3.537264792195357, 50.694928459286054 ] } },
{ "type": "Feature", "properties": { "siteNo": "316097", "siteName": "MATFORD PARK & RIDE", "mounting": "Ground Mounted", "voltage_kv": 11.0 }, "geometry": { "type": "Point", "coordinates": [ -3.519801541720272, 50.69517556529054 ] } },
{ "type": "Feature", "properties": { "siteNo": "316619", "siteName": "SPANGLES", "mounting": "Ground Mounted", "voltage_kv": 11.0 }, "geometry": { "type": "Point", "coordinates": [ -3.515908234230262, 50.696058420002558 ] } },
{ "type": "Feature", "properties": { "siteNo": "315034", "siteName": "CHANTRY GARDENS NO 2", "mounting": "Ground Mounted", "voltage_kv": 11.0 }, "geometry": { "type": "Point", "coordinates": [ -3.528991069456784, 50.6959724257433 ] } },
{ "type": "Feature", "properties": { "siteNo": "310228", "siteName": "MUTTON LANE", "mounting": "Pole Mounted", "voltage_kv": 11.0 }, "geometry": { "type": "Point", "coordinates": [ -3.525721247074789, 50.696158586058672 ] } },
{ "type": "Feature", "properties": { "siteNo": "315506", "siteName": "TOTTONS COURT", "mounting": "Ground Mounted", "voltage_kv": 11.0 }, "geometry": { "type": "Point", "coordinates": [ -3.538402645836539, 50.696690629319377 ] } },
{ "type": "Feature", "properties": { "siteNo": "317354", "siteName": "LIVESTOCK MARKET", "mounting": "Ground Mounted", "voltage_kv": 11.0 }, "geometry": { "type": "Point", "coordinates": [ -3.522557647038032, 50.697038188915258 ] } },
{ "type": "Feature", "properties": { "siteNo": "314817", "siteName": "CHANTRY GARDENS", "mounting": "Ground Mounted", "voltage_kv": 11.0 }, "geometry": { "type": "Point", "coordinates": [ -3.534099454979924, 50.696952004040206 ] } },
{ "type": "Feature", "properties": { "siteNo": "316476", "siteName": "MATFORD MARSH", "mounting": "Ground Mounted", "voltage_kv": 11.0 }, "geometry": { "type": "Point", "coordinates": [ -3.517526017130132, 50.697445743413603 ] } },
{ "type": "Feature", "properties": { "siteNo": "316058", "siteName": "MATFORD PARK ROAD", "mounting": "Ground Mounted", "voltage_kv": 11.0 }, "geometry": { "type": "Point", "coordinates": [ -3.523235795949117, 50.697455839592429 ] } },
{ "type": "Feature", "properties": { "siteNo": "316636", "siteName": "CABLE & WIRELESS", "mounting": "Ground Mounted", "voltage_kv": 11.0 }, "geometry": { "type": "Point", "coordinates": [ -3.526111531648578, 50.697759405679641 ] } },
{ "type": "Feature", "properties": { "siteNo": "316060", "siteName": "MANATON CLOSE", "mounting": "Ground Mounted", "voltage_kv": 11.0 }, "geometry": { "type": "Point", "coordinates": [ -3.525153884137194, 50.69787742754864 ] } },
{ "type": "Feature", "properties": { "siteNo": "316928", "siteName": "SILVERTON ROAD MATFORD", "mounting": "Ground Mounted", "voltage_kv": 11.0 }, "geometry": { "type": "Point", "coordinates": [ -3.516254852375789, 50.698224056111393 ] } },
{ "type": "Feature", "properties": { "siteNo": "310272", "siteName": "ALDENS ROAD", "mounting": "Ground Mounted", "voltage_kv": 11.0 }, "geometry": { "type": "Point", "coordinates": [ -3.536498154152143, 50.698330249476953 ] } },
{ "type": "Feature", "properties": { "siteNo": "315289", "siteName": "WILLS NURSERY ESTATE", "mounting": "Ground Mounted", "voltage_kv": 11.0 }, "geometry": { "type": "Point", "coordinates": [ -3.530446066869619, 50.698445478470859 ] } },
{ "type": "Feature", "properties": { "siteNo": "315667", "siteName": "MATFORD LINK ROAD", "mounting": "Ground Mounted", "voltage_kv": 11.0 }, "geometry": { "type": "Point", "coordinates": [ -3.52318490615339, 50.698791948009216 ] } },
{ "type": "Feature", "properties": { "siteNo": "315688", "siteName": "ASHLEIGH", "mounting": "Ground Mounted", "voltage_kv": 11.0 }, "geometry": { "type": "Point", "coordinates": [ -3.539730879887587, 50.698864879369133 ] } },
{ "type": "Feature", "properties": { "siteNo": "316800", "siteName": "DENBURY COURT", "mounting": "Ground Mounted", "voltage_kv": 11.0 }, "geometry": { "type": "Point", "coordinates": [ -3.518527827723365, 50.699483536474482 ] } },
{ "type": "Feature", "properties": { "siteNo": "310364", "siteName": "CLAPPERBROOK LANE", "mounting": "Ground Mounted", "voltage_kv": 11.0 }, "geometry": { "type": "Point", "coordinates": [ -3.532851219356365, 50.699810537032519 ] } },
{ "type": "Feature", "properties": { "siteNo": "315864", "siteName": "TRANSFLEET", "mounting": "Ground Mounted", "voltage_kv": 11.0 }, "geometry": { "type": "Point", "coordinates": [ -3.52662784143113, 50.699965989035199 ] } },
{ "type": "Feature", "properties": { "siteNo": "310348", "siteName": "HIGHER WHIDDON", "mounting": "Pole Mounted", "voltage_kv": 11.0 }, "geometry": { "type": "Point", "coordinates": [ -3.576558382510651, 50.695201002075329 ] } },
{ "type": "Feature", "properties": { "siteNo": "314166", "siteName": "PUMPING STATION", "mounting": "Pole Mounted", "voltage_kv": 11.0 }, "geometry": { "type": "Point", "coordinates": [ -3.569963144140281, 50.699076229052842 ] } },
{ "type": "Feature", "properties": { "siteNo": "314746", "siteName": "WHIDDON COTTS", "mounting": "Pole Mounted", "voltage_kv": 11.0 }, "geometry": { "type": "Point", "coordinates": [ -3.572110039114175, 50.699404018883783 ] } },
{ "type": "Feature", "properties": { "siteNo": "317437", "siteName": "IDE FARM BARN", "mounting": "Pole Mounted", "voltage_kv": 11.0 }, "geometry": { "type": "Point", "coordinates": [ -3.545868168168278, 50.700330742956751 ] } },
{ "type": "Feature", "properties": { "siteNo": "313466", "siteName": "IDE LANE", "mounting": "Ground Mounted", "voltage_kv": 11.0 }, "geometry": { "type": "Point", "coordinates": [ -3.542512745666429, 50.700744610834022 ] } },
{ "type": "Feature", "properties": { "siteNo": "313498", "siteName": "IDE STATION ROAD", "mounting": "Ground Mounted", "voltage_kv": 11.0 }, "geometry": { "type": "Point", "coordinates": [ -3.561173300903436, 50.701089650057689 ] } },
{ "type": "Feature", "properties": { "siteNo": "314744", "siteName": "WESTOWN FARM", "mounting": "Pole Mounted", "voltage_kv": 11.0 }, "geometry": { "type": "Point", "coordinates": [ -3.572161971249977, 50.701302730224022 ] } },
{ "type": "Feature", "properties": { "siteNo": "314165", "siteName": "EARLES COURT", "mounting": "Pole Mounted", "voltage_kv": 11.0 }, "geometry": { "type": "Point", "coordinates": [ -3.570957548937746, 50.702049036965221 ] } },
{ "type": "Feature", "properties": { "siteNo": "316746", "siteName": "OAKLAND FARM", "mounting": "Pole Mounted", "voltage_kv": 11.0 }, "geometry": { "type": "Point", "coordinates": [ -3.547688387763302, 50.702563958850924 ] } },
{ "type": "Feature", "properties": { "siteNo": "317370", "siteName": "SPRINGWELL NURSERY", "mounting": "Pole Mounted", "voltage_kv": 11.0 }, "geometry": { "type": "Point", "coordinates": [ -3.552255373201392, 50.704188687357266 ] } },
{ "type": "Feature", "properties": { "siteNo": "315596", "siteName": "COFTON ROAD", "mounting": "Ground Mounted", "voltage_kv": 11.0 }, "geometry": { "type": "Point", "coordinates": [ -3.521222553195272, 50.70057887206935 ] } },
{ "type": "Feature", "properties": { "siteNo": "315480", "siteName": "BUDLAKE ROAD NO. 1", "mounting": "Ground Mounted", "voltage_kv": 11.0 }, "geometry": { "type": "Point", "coordinates": [ -3.525582741818492, 50.700619009539587 ] } },
{ "type": "Feature", "properties": { "siteNo": "315613", "siteName": "WHEATSHEAF WAY", "mounting": "Ground Mounted", "voltage_kv": 11.0 }, "geometry": { "type": "Point", "coordinates": [ -3.539468246968845, 50.700887061510706 ] } },
{ "type": "Feature", "properties": { "siteNo": "314668", "siteName": "CHAPEL ROAD", "mounting": "Ground Mounted", "voltage_kv": 11.0 }, "geometry": { "type": "Point", "coordinates": [ -3.534728339166186, 50.701048507568125 ] } },
{ "type": "Feature", "properties": { "siteNo": "316642", "siteName": "LIDL STORE ALPHINGBROOK ROAD", "mounting": "Ground Mounted", "voltage_kv": 11.0 }, "geometry": { "type": "Point", "coordinates": [ -3.531159527272477, 50.701281761929941 ] } },
{ "type": "Feature", "properties": { "siteNo": "317740", "siteName": "Rosies Retreat", "mounting": "Ground Mounted", "voltage_kv": 11.0 }, "geometry": { "type": "Point", "coordinates": [ -3.538131660245448, 50.702085808102133 ] } },
{ "type": "Feature", "properties": { "siteNo": "314877", "siteName": "EXETER IGNITION ALPHINGTON", "mounting": "Ground Mounted", "voltage_kv": 11.0 }, "geometry": { "type": "Point", "coordinates": [ -3.531686230468003, 50.702228510607057 ] } },
{ "type": "Feature", "properties": { "siteNo": "316803", "siteName": "MERRIOT HOUSE", "mounting": "Ground Mounted", "voltage_kv": 11.0 }, "geometry": { "type": "Point", "coordinates": [ -3.525295403676747, 50.702365945524782 ] } },
{ "type": "Feature", "properties": { "siteNo": "314850", "siteName": "FARWEST DEVELOPMENTS", "mounting": "Ground Mounted", "voltage_kv": 11.0 }, "geometry": { "type": "Point", "coordinates": [ -3.528119711758047, 50.702929559623307 ] } },
{ "type": "Feature", "properties": { "siteNo": "314590", "siteName": "WALLS DEPOT", "mounting": "Ground Mounted", "voltage_kv": 11.0 }, "geometry": { "type": "Point", "coordinates": [ -3.525185304028389, 50.703123552305705 ] } },
{ "type": "Feature", "properties": { "siteNo": "314732", "siteName": "CHURCH ROAD ALPHINGTON", "mounting": "Ground Mounted", "voltage_kv": 11.0 }, "geometry": { "type": "Point", "coordinates": [ -3.533842538279724, 50.703097834758502 ] } },
{ "type": "Feature", "properties": { "siteNo": "316570", "siteName": "C P ARTS", "mounting": "Ground Mounted", "voltage_kv": 11.0 }, "geometry": { "type": "Point", "coordinates": [ -3.523833516539214, 50.704069841883403 ] } },
{ "type": "Feature", "properties": { "siteNo": "314269", "siteName": "CROSS VIEW", "mounting": "Ground Mounted", "voltage_kv": 11.0 }, "geometry": { "type": "Point", "coordinates": [ -3.5338608633967, 50.703954188982259 ] } },
{ "type": "Feature", "properties": { "siteNo": "316612", "siteName": "JARDINE PARK", "mounting": "Ground Mounted", "voltage_kv": 11.0 }, "geometry": { "type": "Point", "coordinates": [ -3.531137769933725, 50.704052144291254 ] } },
{ "type": "Feature", "properties": { "siteNo": "317116", "siteName": "GRACE ROAD SOUTH", "mounting": "Ground Mounted", "voltage_kv": 11.0 }, "geometry": { "type": "Point", "coordinates": [ -3.522906496708277, 50.704352634782495 ] } },
{ "type": "Feature", "properties": { "siteNo": "314488", "siteName": "INCINERATOR", "mounting": "Ground Mounted", "voltage_kv": 11.0 }, "geometry": { "type": "Point", "coordinates": [ -3.522901458069174, 50.704377198663082 ] } },
{ "type": "Feature", "properties": { "siteNo": "314374", "siteName": "Wheatons", "mounting": "Ground Mounted", "voltage_kv": 11.0 }, "geometry": { "type": "Point", "coordinates": [ -3.526294866796775, 50.704553465058922 ] } },
{ "type": "Feature", "properties": { "siteNo": "310270", "siteName": "ALPHINGTON HALT", "mounting": "Ground Mounted", "voltage_kv": 11.0 }, "geometry": { "type": "Point", "coordinates": [ -3.537505970067393, 50.704410149376024 ] } },
{ "type": "Feature", "properties": { "siteNo": "313496", "siteName": "HEATHCOATES", "mounting": "Ground Mounted", "voltage_kv": 11.0 }, "geometry": { "type": "Point", "coordinates": [ -3.528935766907224, 50.704694711990221 ] } },
{ "type": "Feature", "properties": { "siteNo": "314643", "siteName": "GRACE ROAD WAREHOUSES", "mounting": "Ground Mounted", "voltage_kv": 11.0 }, "geometry": { "type": "Point", "coordinates": [ -3.532644838239391, 50.704728791618258 ] } },
{ "type": "Feature", "properties": { "siteNo": "314848", "siteName": "LEGION WAY", "mounting": "Ground Mounted", "voltage_kv": 11.0 }, "geometry": { "type": "Point", "coordinates": [ -3.53449459045002, 50.704744775434037 ] } },
{ "type": "Feature", "properties": { "siteNo": "317733", "siteName": "Sainsburys Alphington Evcp", "mounting": "Ground Mounted", "voltage_kv": 11.0 }, "geometry": { "type": "Point", "coordinates": [ -3.537466923728986, 50.705415508214031 ] } },
{ "type": "Feature", "properties": { "siteNo": "314085", "siteName": "CRABB LANE", "mounting": "Ground Mounted", "voltage_kv": 11.0 }, "geometry": { "type": "Point", "coordinates": [ -3.542373171615407, 50.705496459777116 ] } },
{ "type": "Feature", "properties": { "siteNo": "310022", "siteName": "MARSH BARTON 33/11KV S/STN", "mounting": "Ground Mounted", "voltage_kv": 33.0 }, "geometry": { "type": "Point", "coordinates": [ -3.52911882788474, 50.705897012785826 ] } },
{ "type": "Feature", "properties": { "siteNo": "310022", "siteName": "MARSH BARTON 33/11KV S/STN", "mounting": "Ground Mounted", "voltage_kv": 33.0 }, "geometry": { "type": "Point", "coordinates": [ -3.529155496868764, 50.705969737940705 ] } },
{ "type": "Feature", "properties": { "siteNo": "310271", "siteName": "ABATTOIR", "mounting": "Ground Mounted", "voltage_kv": 11.0 }, "geometry": { "type": "Point", "coordinates": [ -3.52552894935297, 50.706048844812798 ] } },
{ "type": "Feature", "properties": { "siteNo": "310022", "siteName": "MARSH BARTON 33/11KV S/STN", "mounting": "Ground Mounted", "voltage_kv": 11.0 }, "geometry": { "type": "Point", "coordinates": [ -3.528936411311931, 50.706099770324421 ] } },
{ "type": "Feature", "properties": { "siteNo": "310268", "siteName": "HARDINGE", "mounting": "Ground Mounted", "voltage_kv": 11.0 }, "geometry": { "type": "Point", "coordinates": [ -3.532914685796524, 50.706086547447285 ] } },
{ "type": "Feature", "properties": { "siteNo": "310006", "siteName": "MARSH BARTON POWER STATION", "mounting": "Ground Mounted", "voltage_kv": 11.0 }, "geometry": { "type": "Point", "coordinates": [ -3.524333325218734, 50.706381193075678 ] } },
{ "type": "Feature", "properties": { "siteNo": "315796", "siteName": "M & M PLASTICS", "mounting": "Ground Mounted", "voltage_kv": 11.0 }, "geometry": { "type": "Point", "coordinates": [ -3.526377421642671, 50.706471225540355 ] } },
{ "type": "Feature", "properties": { "siteNo": "314729", "siteName": "FORDLAND FARM", "mounting": "Pole Mounted", "voltage_kv": 11.0 }, "geometry": { "type": "Point", "coordinates": [ -3.592976910043867, 50.703202386533619 ] } },
{ "type": "Feature", "properties": { "siteNo": "315323", "siteName": "TREES", "mounting": "Pole Mounted", "voltage_kv": 11.0 }, "geometry": { "type": "Point", "coordinates": [ -3.61399174065197, 50.703400450183402 ] } },
{ "type": "Feature", "properties": { "siteNo": "310151", "siteName": "BAROONA", "mounting": "Pole Mounted", "voltage_kv": 11.0 }, "geometry": { "type": "Point", "coordinates": [ -3.592915650206808, 50.706285506416414 ] } },
{ "type": "Feature", "properties": { "siteNo": "314737", "siteName": "LONGDOWN AA BOX", "mounting": "Pole Mounted", "voltage_kv": 11.0 }, "geometry": { "type": "Point", "coordinates": [ -3.586590274881271, 50.706718487816339 ] } },
{ "type": "Feature", "properties": { "siteNo": "314725", "siteName": "LONGDOWN WOODLAND", "mounting": "Pole Mounted", "voltage_kv": 11.0 }, "geometry": { "type": "Point", "coordinates": [ -3.597764510680966, 50.706608886996356 ] } },
{ "type": "Feature", "properties": { "siteNo": "314723", "siteName": "LONGDOWN RECTORY", "mounting": "Pole Mounted", "voltage_kv": 11.0 }, "geometry": { "type": "Point", "coordinates": [ -3.613062103735109, 50.706666099342179 ] } },
{ "type": "Feature", "properties": { "siteNo": "313916", "siteName": "MARKS CROSS", "mounting": "Pole Mounted", "voltage_kv": 11.0 }, "geometry": { "type": "Point", "coordinates": [ -3.58166434452324, 50.70734628662467 ] } },
{ "type": "Feature", "properties": { "siteNo": "316974", "siteName": "HOMEFIELD", "mounting": "Pole Mounted", "voltage_kv": 11.0 }, "geometry": { "type": "Point", "coordinates": [ -3.597106661010379, 50.707146899175896 ] } },
{ "type": "Feature", "properties": { "siteNo": "310152", "siteName": "LONGDOWN VILLAGE", "mounting": "Pole Mounted", "voltage_kv": 11.0 }, "geometry": { "type": "Point", "coordinates": [ -3.608558241268864, 50.70903627342922 ] } },
{ "type": "Feature", "properties": { "siteNo": "310379", "siteName": "OAKLAND", "mounting": "Pole Mounted", "voltage_kv": 11.0 }, "geometry": { "type": "Point", "coordinates": [ -3.613175117802872, 50.709978499032474 ] } },
{ "type": "Feature", "properties": { "siteNo": "344148", "siteName": "KELLAND", "mounting": "Pole Mounted", "voltage_kv": 11.0 }, "geometry": { "type": "Point", "coordinates": [ -3.667336214355148, 50.706544472069865 ] } },
{ "type": "Feature", "properties": { "siteNo": "341348", "siteName": "SCUTTISHILL", "mounting": "Pole Mounted", "voltage_kv": 11.0 }, "geometry": { "type": "Point", "coordinates": [ -3.679118116206731, 50.707601716100704 ] } },
{ "type": "Feature", "properties": { "siteNo": "341348", "siteName": "SCUTTISHILL", "mounting": "Pole Mounted", "voltage_kv": 11.0 }, "geometry": { "type": "Point", "coordinates": [ -3.679121768361764, 50.707603642065692 ] } },
{ "type": "Feature", "properties": { "siteNo": "342638", "siteName": "GRANGE", "mounting": "Pole Mounted", "voltage_kv": 11.0 }, "geometry": { "type": "Point", "coordinates": [ -3.668369173438432, 50.708091152382124 ] } },
{ "type": "Feature", "properties": { "siteNo": "341349", "siteName": "WESTLAND", "mounting": "Pole Mounted", "voltage_kv": 11.0 }, "geometry": { "type": "Point", "coordinates": [ -3.68369200255421, 50.710994623826103 ] } },
{ "type": "Feature", "properties": { "siteNo": "344044", "siteName": "GOATLAKE FARM", "mounting": "Pole Mounted", "voltage_kv": 11.0 }, "geometry": { "type": "Point", "coordinates": [ -3.667252713496591, 50.711419805368095 ] } },
{ "type": "Feature", "properties": { "siteNo": "340202", "siteName": "BILSDON", "mounting": "Pole Mounted", "voltage_kv": 11.0 }, "geometry": { "type": "Point", "coordinates": [ -3.664977637350578, 50.711954838220919 ] } },
{ "type": "Feature", "properties": { "siteNo": "346126", "siteName": "Lower Windout Lane", "mounting": "Pole Mounted", "voltage_kv": 11.0 }, "geometry": { "type": "Point", "coordinates": [ -3.683339659378417, 50.713556385259089 ] } },
{ "type": "Feature", "properties": { "siteNo": "341194", "siteName": "HIGHER PITT", "mounting": "Pole Mounted", "voltage_kv": 11.0 }, "geometry": { "type": "Point", "coordinates": [ -3.646972176602783, 50.711198256324984 ] } },
{ "type": "Feature", "properties": { "siteNo": "341197", "siteName": "WOODHAYES FARM", "mounting": "Pole Mounted", "voltage_kv": 11.0 }, "geometry": { "type": "Point", "coordinates": [ -3.633407159424856, 50.711390882686565 ] } },
{ "type": "Feature", "properties": { "siteNo": "310378", "siteName": "HOLCOMBE BURNELL CHURCH", "mounting": "Pole Mounted", "voltage_kv": 11.0 }, "geometry": { "type": "Point", "coordinates": [ -3.618043089683907, 50.713131358296742 ] } },
{ "type": "Feature", "properties": { "siteNo": "341198", "siteName": "KINGSWELL", "mounting": "Pole Mounted", "voltage_kv": 11.0 }, "geometry": { "type": "Point", "coordinates": [ -3.630144024994435, 50.714450898671942 ] } },
{ "type": "Feature", "properties": { "siteNo": "315459", "siteName": "LOWER KINGSWELL", "mounting": "Pole Mounted", "voltage_kv": 11.0 }, "geometry": { "type": "Point", "coordinates": [ -3.623168718147155, 50.720144798954173 ] } },
{ "type": "Feature", "properties": { "siteNo": "314450", "siteName": "HACKADOWN", "mounting": "Pole Mounted", "voltage_kv": 11.0 }, "geometry": { "type": "Point", "coordinates": [ -3.635864332766119, 50.720336919853345 ] } },
{ "type": "Feature", "properties": { "siteNo": "313453", "siteName": "BARTON HEAD", "mounting": "Pole Mounted", "voltage_kv": 11.0 }, "geometry": { "type": "Point", "coordinates": [ -3.638819574413119, 50.721019089686912 ] } },
{ "type": "Feature", "properties": { "siteNo": "315460", "siteName": "LOWER KINGSWELL FARM BUILDINGS", "mounting": "Pole Mounted", "voltage_kv": 11.0 }, "geometry": { "type": "Point", "coordinates": [ -3.620082993575487, 50.721308136748505 ] } },
{ "type": "Feature", "properties": { "siteNo": "313399", "siteName": "NEW HOUSE", "mounting": "Pole Mounted", "voltage_kv": 11.0 }, "geometry": { "type": "Point", "coordinates": [ -3.645461146339326, 50.723793997017665 ] } },
{ "type": "Feature", "properties": { "siteNo": "315430", "siteName": "FIVE MILE HILL BRIDG", "mounting": "Pole Mounted", "voltage_kv": 11.0 }, "geometry": { "type": "Point", "coordinates": [ -3.636843935283204, 50.724886487119988 ] } },
{ "type": "Feature", "properties": { "siteNo": "343034", "siteName": "GOATLAKE COTTAGE", "mounting": "Pole Mounted", "voltage_kv": 11.0 }, "geometry": { "type": "Point", "coordinates": [ -3.667565509415548, 50.714370230266411 ] } },
{ "type": "Feature", "properties": { "siteNo": "341350", "siteName": "WINDOUT", "mounting": "Pole Mounted", "voltage_kv": 11.0 }, "geometry": { "type": "Point", "coordinates": [ -3.684937516439883, 50.714965311291529 ] } },
{ "type": "Feature", "properties": { "siteNo": "343354", "siteName": "ALLER", "mounting": "Pole Mounted", "voltage_kv": 11.0 }, "geometry": { "type": "Point", "coordinates": [ -3.685880893609397, 50.718929181955595 ] } },
{ "type": "Feature", "properties": { "siteNo": "315639", "siteName": "THREE FOOT STOOL", "mounting": "Pole Mounted", "voltage_kv": 11.0 }, "geometry": { "type": "Point", "coordinates": [ -3.665882945660489, 50.720416699222334 ] } },
{ "type": "Feature", "properties": { "siteNo": "315556", "siteName": "FAIRVIEW FARM", "mounting": "Pole Mounted", "voltage_kv": 11.0 }, "geometry": { "type": "Point", "coordinates": [ -3.666294005409545, 50.724756039712553 ] } },
{ "type": "Feature", "properties": { "siteNo": "313163", "siteName": "OAK FARM", "mounting": "Pole Mounted", "voltage_kv": 11.0 }, "geometry": { "type": "Point", "coordinates": [ -3.674698995031716, 50.725725960320105 ] } },
{ "type": "Feature", "properties": { "siteNo": "313990", "siteName": "BROOKSIDE FILLING STATION", "mounting": "Pole Mounted", "voltage_kv": 11.0 }, "geometry": { "type": "Point", "coordinates": [ -3.626681096517193, 50.725256562405242 ] } },
{ "type": "Feature", "properties": { "siteNo": "316084", "siteName": "WEST TOWN FARM", "mounting": "Pole Mounted", "voltage_kv": 11.0 }, "geometry": { "type": "Point", "coordinates": [ -3.622286029797859, 50.725497888834177 ] } },
{ "type": "Feature", "properties": { "siteNo": "317225", "siteName": "BROOKSIDE SOLAR FARM", "mounting": "Ground Mounted", "voltage_kv": 11.0 }, "geometry": { "type": "Point", "coordinates": [ -3.628155316847138, 50.725523814185905 ] } },
{ "type": "Feature", "properties": { "siteNo": "313456", "siteName": "FIVE MILE HILL CROSS", "mounting": "Pole Mounted", "voltage_kv": 11.0 }, "geometry": { "type": "Point", "coordinates": [ -3.634720714314208, 50.726305702763071 ] } },
{ "type": "Feature", "properties": { "siteNo": "313567", "siteName": "PATHFINDER 3", "mounting": "Pole Mounted", "voltage_kv": 11.0 }, "geometry": { "type": "Point", "coordinates": [ -3.639881337105408, 50.726567034350147 ] } },
{ "type": "Feature", "properties": { "siteNo": "316589", "siteName": "WHITLEY BRAKE", "mounting": "Pole Mounted", "voltage_kv": 11.0 }, "geometry": { "type": "Point", "coordinates": [ -3.631993942826895, 50.726720107290419 ] } },
{ "type": "Feature", "properties": { "siteNo": "316116", "siteName": "PATHFINDER NO 4", "mounting": "Pole Mounted", "voltage_kv": 11.0 }, "geometry": { "type": "Point", "coordinates": [ -3.642941535611345, 50.726770248722637 ] } },
{ "type": "Feature", "properties": { "siteNo": "315135", "siteName": "FINGLE GLEN", "mounting": "Pole Mounted", "voltage_kv": 11.0 }, "geometry": { "type": "Point", "coordinates": [ -3.650925803195661, 50.726691279784646 ] } },
{ "type": "Feature", "properties": { "siteNo": "317378", "siteName": "LONGWOOD", "mounting": "Pole Mounted", "voltage_kv": 11.0 }, "geometry": { "type": "Point", "coordinates": [ -3.645843609830142, 50.726874142206469 ] } },
{ "type": "Feature", "properties": { "siteNo": "315470", "siteName": "FINGLE GLEN A30 LIGHTING", "mounting": "Pole Mounted", "voltage_kv": 11.0 }, "geometry": { "type": "Point", "coordinates": [ -3.652516501644823, 50.726803561006278 ] } },
{ "type": "Feature", "properties": { "siteNo": "313454", "siteName": "FIVE MILE HILL", "mounting": "Pole Mounted", "voltage_kv": 11.0 }, "geometry": { "type": "Point", "coordinates": [ -3.63847433623778, 50.727085653064194 ] } },
{ "type": "Feature", "properties": { "siteNo": "313397", "siteName": "EAST HUISH", "mounting": "Pole Mounted", "voltage_kv": 11.0 }, "geometry": { "type": "Point", "coordinates": [ -3.65362512251722, 50.7272385581431 ] } },
{ "type": "Feature", "properties": { "siteNo": "316981", "siteName": "FINGLE GLEN GOLF HOTEL", "mounting": "Ground Mounted", "voltage_kv": 11.0 }, "geometry": { "type": "Point", "coordinates": [ -3.649637456853013, 50.728043720800514 ] } },
{ "type": "Feature", "properties": { "siteNo": "313398", "siteName": "PATHFINDER NO 1", "mounting": "Ground Mounted", "voltage_kv": 11.0 }, "geometry": { "type": "Point", "coordinates": [ -3.64526025255777, 50.728254373603392 ] } },
{ "type": "Feature", "properties": { "siteNo": "317189", "siteName": "HOLLAND BALL", "mounting": "Ground Mounted", "voltage_kv": 11.0 }, "geometry": { "type": "Point", "coordinates": [ -3.637268725401962, 50.728987394012087 ] } },
{ "type": "Feature", "properties": { "siteNo": "313483", "siteName": "PATHFINDER 2", "mounting": "Ground Mounted", "voltage_kv": 11.0 }, "geometry": { "type": "Point", "coordinates": [ -3.642150698712596, 50.729131234920153 ] } },
{ "type": "Feature", "properties": { "siteNo": "313455", "siteName": "HEATH LANE", "mounting": "Pole Mounted", "voltage_kv": 11.0 }, "geometry": { "type": "Point", "coordinates": [ -3.638637631281447, 50.729277225778226 ] } },
{ "type": "Feature", "properties": { "siteNo": "313458", "siteName": "LOWER HARE", "mounting": "Pole Mounted", "voltage_kv": 11.0 }, "geometry": { "type": "Point", "coordinates": [ -3.625082419722508, 50.730189853544246 ] } },
{ "type": "Feature", "properties": { "siteNo": "315648", "siteName": "LOWER HARE BUNGALOW", "mounting": "Pole Mounted", "voltage_kv": 11.0 }, "geometry": { "type": "Point", "coordinates": [ -3.627024952501752, 50.731549897087653 ] } },
{ "type": "Feature", "properties": { "siteNo": "313428", "siteName": "GRATTON", "mounting": "Pole Mounted", "voltage_kv": 11.0 }, "geometry": { "type": "Point", "coordinates": [ -3.617632940150573, 50.732791329030242 ] } },
{ "type": "Feature", "properties": { "siteNo": "313395", "siteName": "OAKFIELDS", "mounting": "Pole Mounted", "voltage_kv": 11.0 }, "geometry": { "type": "Point", "coordinates": [ -3.672500389847077, 50.728249560918037 ] } },
{ "type": "Feature", "properties": { "siteNo": "315414", "siteName": "WOODLANDS FILL STN", "mounting": "Pole Mounted", "voltage_kv": 11.0 }, "geometry": { "type": "Point", "coordinates": [ -3.659415383330944, 50.729885062491185 ] } },
{ "type": "Feature", "properties": { "siteNo": "313396", "siteName": "GREAT HUISH", "mounting": "Pole Mounted", "voltage_kv": 11.0 }, "geometry": { "type": "Point", "coordinates": [ -3.662109447548082, 50.730018515997237 ] } },
{ "type": "Feature", "properties": { "siteNo": "315791", "siteName": "SOUTHWAY (FULFORD CL)", "mounting": "Ground Mounted", "voltage_kv": 11.0 }, "geometry": { "type": "Point", "coordinates": [ -3.678687307045678, 50.732152825847514 ] } },
{ "type": "Feature", "properties": { "siteNo": "315098", "siteName": "FOUR OAKS ROAD", "mounting": "Ground Mounted", "voltage_kv": 11.0 }, "geometry": { "type": "Point", "coordinates": [ -3.676143031708805, 50.732484717675668 ] } },
{ "type": "Feature", "properties": { "siteNo": "314413", "siteName": "CLEAVE PLANTATION P", "mounting": "Pole Mounted", "voltage_kv": 11.0 }, "geometry": { "type": "Point", "coordinates": [ -3.667038779292457, 50.73317199765841 ] } },
{ "type": "Feature", "properties": { "siteNo": "315552", "siteName": "SOUTHWAY BY NO 1", "mounting": "Ground Mounted", "voltage_kv": 11.0 }, "geometry": { "type": "Point", "coordinates": [ -3.680925288254886, 50.733521481183416 ] } },
{ "type": "Feature", "properties": { "siteNo": "313162", "siteName": "SCHOOL LANE", "mounting": "Ground Mounted", "voltage_kv": 11.0 }, "geometry": { "type": "Point", "coordinates": [ -3.678089803931765, 50.733970218917001 ] } },
{ "type": "Feature", "properties": { "siteNo": "314411", "siteName": "DINNIS TRACTORS", "mounting": "Pole Mounted", "voltage_kv": 11.0 }, "geometry": { "type": "Point", "coordinates": [ -3.68590382175674, 50.734473835274521 ] } },
{ "type": "Feature", "properties": { "siteNo": "315315", "siteName": "HEATH BARTON HOUSE", "mounting": "Pole Mounted", "voltage_kv": 11.0 }, "geometry": { "type": "Point", "coordinates": [ -3.636412526279295, 50.734130667594385 ] } },
{ "type": "Feature", "properties": { "siteNo": "313427", "siteName": "HIGHER HARE", "mounting": "Pole Mounted", "voltage_kv": 11.0 }, "geometry": { "type": "Point", "coordinates": [ -3.62273989659925, 50.734527941117072 ] } },
{ "type": "Feature", "properties": { "siteNo": "313412", "siteName": "WEYLAND", "mounting": "Pole Mounted", "voltage_kv": 11.0 }, "geometry": { "type": "Point", "coordinates": [ -3.648735919638757, 50.73469559583318 ] } },
{ "type": "Feature", "properties": { "siteNo": "313426", "siteName": "FOLLEY HOUSE", "mounting": "Pole Mounted", "voltage_kv": 11.0 }, "geometry": { "type": "Point", "coordinates": [ -3.624465369162686, 50.735238206138895 ] } },
{ "type": "Feature", "properties": { "siteNo": "313461", "siteName": "FLOYTE LANE", "mounting": "Pole Mounted", "voltage_kv": 11.0 }, "geometry": { "type": "Point", "coordinates": [ -3.653901027340459, 50.73573702516213 ] } },
{ "type": "Feature", "properties": { "siteNo": "313413", "siteName": "CHANCE COTTAGE", "mounting": "Pole Mounted", "voltage_kv": 11.0 }, "geometry": { "type": "Point", "coordinates": [ -3.640997522748826, 50.735933733422641 ] } },
{ "type": "Feature", "properties": { "siteNo": "316493", "siteName": "TELECOMM CROSS PARK", "mounting": "Pole Mounted", "voltage_kv": 11.0 }, "geometry": { "type": "Point", "coordinates": [ -3.639269035292994, 50.736140371834551 ] } },
{ "type": "Feature", "properties": { "siteNo": "313416", "siteName": "RIDGEWAY", "mounting": "Pole Mounted", "voltage_kv": 11.0 }, "geometry": { "type": "Point", "coordinates": [ -3.629504303320699, 50.736400373475149 ] } },
{ "type": "Feature", "properties": { "siteNo": "313414", "siteName": "CROSS PARK", "mounting": "Pole Mounted", "voltage_kv": 11.0 }, "geometry": { "type": "Point", "coordinates": [ -3.637288622974293, 50.736369641243805 ] } },
{ "type": "Feature", "properties": { "siteNo": "313415", "siteName": "HEATH CROSS", "mounting": "Pole Mounted", "voltage_kv": 11.0 }, "geometry": { "type": "Point", "coordinates": [ -3.633360101406966, 50.736774969228094 ] } },
{ "type": "Feature", "properties": { "siteNo": "310624", "siteName": "LITTLEMEAD LANE", "mounting": "Ground Mounted", "voltage_kv": 11.0 }, "geometry": { "type": "Point", "coordinates": [ -3.407962295457022, 50.638812563877835 ] } },
{ "type": "Feature", "properties": { "siteNo": "310623", "siteName": "THORPE AVENUE", "mounting": "Ground Mounted", "voltage_kv": 11.0 }, "geometry": { "type": "Point", "coordinates": [ -3.404968254948265, 50.640325867515379 ] } },
{ "type": "Feature", "properties": { "siteNo": "343824", "siteName": "SLITTERCOMBE PUMPING STATION", "mounting": "Pole Mounted", "voltage_kv": 11.0 }, "geometry": { "type": "Point", "coordinates": [ -3.47029324677489, 50.641721882660093 ] } },
{ "type": "Feature", "properties": { "siteNo": "343164", "siteName": "EAST TOWN", "mounting": "Pole Mounted", "voltage_kv": 11.0 }, "geometry": { "type": "Point", "coordinates": [ -3.473519822826382, 50.642441984396818 ] } },
{ "type": "Feature", "properties": { "siteNo": "340258", "siteName": "POWDERHAM CASTLE", "mounting": "Ground Mounted", "voltage_kv": 11.0 }, "geometry": { "type": "Point", "coordinates": [ -3.460694225882497, 50.642620135240577 ] } },
{ "type": "Feature", "properties": { "siteNo": "343599", "siteName": "POWDERHAM BARN", "mounting": "Pole Mounted", "voltage_kv": 11.0 }, "geometry": { "type": "Point", "coordinates": [ -3.464235778756093, 50.642835298155518 ] } },
{ "type": "Feature", "properties": { "siteNo": "343600", "siteName": "POWDERHAM PARK", "mounting": "Pole Mounted", "voltage_kv": 11.0 }, "geometry": { "type": "Point", "coordinates": [ -3.467884743301128, 50.644024520335783 ] } },
{ "type": "Feature", "properties": { "siteNo": "345466", "siteName": "POWDERHAM SAWMILL", "mounting": "Pole Mounted", "voltage_kv": 11.0 }, "geometry": { "type": "Point", "coordinates": [ -3.471824436257889, 50.645056836291801 ] } },
{ "type": "Feature", "properties": { "siteNo": "345361", "siteName": "STARCROSS YACHT CLUB", "mounting": "Pole Mounted", "voltage_kv": 11.0 }, "geometry": { "type": "Point", "coordinates": [ -3.452244307291024, 50.648041467635977 ] } },
{ "type": "Feature", "properties": { "siteNo": "341474", "siteName": "POWDERHAM SCHOOL", "mounting": "Pole Mounted", "voltage_kv": 11.0 }, "geometry": { "type": "Point", "coordinates": [ -3.462836848999288, 50.648961912906096 ] } },
{ "type": "Feature", "properties": { "siteNo": "341473", "siteName": "POWDERHAM CHURCH", "mounting": "Pole Mounted", "voltage_kv": 11.0 }, "geometry": { "type": "Point", "coordinates": [ -3.455999416637265, 50.649887188435379 ] } },
{ "type": "Feature", "properties": { "siteNo": "341475", "siteName": "ROSE COTTAGE", "mounting": "Pole Mounted", "voltage_kv": 11.0 }, "geometry": { "type": "Point", "coordinates": [ -3.463992423787396, 50.651697247824131 ] } },
{ "type": "Feature", "properties": { "siteNo": "313529", "siteName": "MOUNT PLEASANT", "mounting": "Pole Mounted", "voltage_kv": 11.0 }, "geometry": { "type": "Point", "coordinates": [ -3.419835800598343, 50.646157876977696 ] } },
{ "type": "Feature", "properties": { "siteNo": "310618", "siteName": "UNDERHILL", "mounting": "Ground Mounted", "voltage_kv": 11.0 }, "geometry": { "type": "Point", "coordinates": [ -3.42996656992077, 50.647272832223699 ] } },
{ "type": "Feature", "properties": { "siteNo": "310435", "siteName": "WATTON BROOK", "mounting": "Pole Mounted", "voltage_kv": 11.0 }, "geometry": { "type": "Point", "coordinates": [ -3.427022711614592, 50.647769412761193 ] } },
{ "type": "Feature", "properties": { "siteNo": "310620", "siteName": "LONGMEADOW ROAD", "mounting": "Ground Mounted", "voltage_kv": 11.0 }, "geometry": { "type": "Point", "coordinates": [ -3.418399039374874, 50.64788414502646 ] } },
{ "type": "Feature", "properties": { "siteNo": "310617", "siteName": "LYMPSTONE", "mounting": "Ground Mounted", "voltage_kv": 11.0 }, "geometry": { "type": "Point", "coordinates": [ -3.423030621184577, 50.648015755817454 ] } },
{ "type": "Feature", "properties": { "siteNo": "315105", "siteName": "LYMPSTONE STATION", "mounting": "Ground Mounted", "voltage_kv": 11.0 }, "geometry": { "type": "Point", "coordinates": [ -3.430938427903941, 50.6479879263619 ] } },
{ "type": "Feature", "properties": { "siteNo": "314206", "siteName": "REDWING INN", "mounting": "Ground Mounted", "voltage_kv": 11.0 }, "geometry": { "type": "Point", "coordinates": [ -3.428225268625478, 50.648254009484063 ] } },
{ "type": "Feature", "properties": { "siteNo": "314101", "siteName": "STRAWBERRY HILL", "mounting": "Ground Mounted", "voltage_kv": 11.0 }, "geometry": { "type": "Point", "coordinates": [ -3.422020703201299, 50.650919272174526 ] } },
{ "type": "Feature", "properties": { "siteNo": "310616", "siteName": "TRAFALGAR ROAD", "mounting": "Ground Mounted", "voltage_kv": 11.0 }, "geometry": { "type": "Point", "coordinates": [ -3.426232173995541, 50.651362737990482 ] } },
{ "type": "Feature", "properties": { "siteNo": "314922", "siteName": "HAREFIELD", "mounting": "Pole Mounted", "voltage_kv": 11.0 }, "geometry": { "type": "Point", "coordinates": [ -3.412577842540577, 50.652391656980079 ] } },
{ "type": "Feature", "properties": { "siteNo": "310734", "siteName": "ROGUE'S ROOST", "mounting": "Pole Mounted", "voltage_kv": 11.0 }, "geometry": { "type": "Point", "coordinates": [ -3.404724202313988, 50.648065202405583 ] } },
{ "type": "Feature", "properties": { "siteNo": "310733", "siteName": "LOWER COOMBE FARM", "mounting": "Pole Mounted", "voltage_kv": 11.0 }, "geometry": { "type": "Point", "coordinates": [ -3.408318562869286, 50.652215790035982 ] } },
{ "type": "Feature", "properties": { "siteNo": "314222", "siteName": "COOMBE FARM", "mounting": "Pole Mounted", "voltage_kv": 11.0 }, "geometry": { "type": "Point", "coordinates": [ -3.403945655652565, 50.657913648799443 ] } },
{ "type": "Feature", "properties": { "siteNo": "341487", "siteName": "WILLSWORTHY", "mounting": "Pole Mounted", "voltage_kv": 11.0 }, "geometry": { "type": "Point", "coordinates": [ -3.499961644407952, 50.65264790532035 ] } },
{ "type": "Feature", "properties": { "siteNo": "341483", "siteName": "MELLANDS", "mounting": "Pole Mounted", "voltage_kv": 11.0 }, "geometry": { "type": "Point", "coordinates": [ -3.489671799395247, 50.653242260728391 ] } },
{ "type": "Feature", "properties": { "siteNo": "341482", "siteName": "GOSSES", "mounting": "Pole Mounted", "voltage_kv": 11.0 }, "geometry": { "type": "Point", "coordinates": [ -3.484517990858037, 50.653474588173381 ] } },
{ "type": "Feature", "properties": { "siteNo": "310284", "siteName": "PENNYCOMBE FARM", "mounting": "Pole Mounted", "voltage_kv": 11.0 }, "geometry": { "type": "Point", "coordinates": [ -3.514141215915525, 50.654394552897273 ] } },
{ "type": "Feature", "properties": { "siteNo": "341481", "siteName": "ARCH LODGE", "mounting": "Pole Mounted", "voltage_kv": 11.0 }, "geometry": { "type": "Point", "coordinates": [ -3.48270496500563, 50.655011714133579 ] } },
{ "type": "Feature", "properties": { "siteNo": "341486", "siteName": "KENNEL COTTAGE", "mounting": "Pole Mounted", "voltage_kv": 11.0 }, "geometry": { "type": "Point", "coordinates": [ -3.500612349265351, 50.654794643352268 ] } },
{ "type": "Feature", "properties": { "siteNo": "310429", "siteName": "PRIDHAMS", "mounting": "Pole Mounted", "voltage_kv": 11.0 }, "geometry": { "type": "Point", "coordinates": [ -3.510478333292494, 50.655516392643406 ] } },
{ "type": "Feature", "properties": { "siteNo": "341478", "siteName": "EXWELL COTTAGES", "mounting": "Pole Mounted", "voltage_kv": 11.0 }, "geometry": { "type": "Point", "coordinates": [ -3.480792490142801, 50.656620763767627 ] } },
{ "type": "Feature", "properties": { "siteNo": "341479", "siteName": "RED LODGE", "mounting": "Pole Mounted", "voltage_kv": 11.0 }, "geometry": { "type": "Point", "coordinates": [ -3.484929582505832, 50.658148386001429 ] } },
{ "type": "Feature", "properties": { "siteNo": "341480", "siteName": "BLACKHEATH FARM", "mounting": "Pole Mounted", "voltage_kv": 11.0 },